,City,Country,Date,Lat,Lng,Max Temp,Humidity,Cloudiness,Wind Speed,Current Description,Rain Inches (last 3 hrs),Snow Inch as ees (last 3 hrs)
0,Priyutovo,RU,2020-05-09 11:27:43,53.9,53.93,76.15,32,0,14.94,clear sky,0,0
1,Nehe,CN,2020-05-09 11:27:44,48.48,124.83,65.07,27,20,2.13,few clouds,0,0
2,Sabha,LY,2020-05-09 11:27:44,27.04,14.43,94.64,11,10,9.91,clear sky,0,0
3,Tilichiki,RU,2020-05-09 11:27:44,60.47,166.1,29.84,99,100,18.03,light snow,0,0
4,Qaanaaq,GL,2020-05-09 11:26:05,77.48,-69.36,7.5,78,0,1.7,clear sky,0,0
5,Hilo,US,2020-05-09 11:23:03,19.73,-155.09,69.8,83,90,4.7,light rain,0,0
6,Prabumulih,ID,2020-05-09 11:27:45,-3.45,104.25,77.5,97,97,2.39,moderate rain,0,0
7,Severo-Kurilsk,RU,2020-05-09 11:27:45,50.68,156.12,33.85,89,80,17.49,broken clouds,0,0
8,El Rincon,HN,2020-05-09 11:27:45,14.58,-87.93,73.4,100,20,0.78,few clouds,0,0
9,Ahuimanu,US,2020-05-09 11:27:45,21.44,-157.84,78.8,54,20,8.05,few clouds,0,0
10,Atuona,PF,2020-05-09 11:25:56,-9.8,-139.03,80.13,78,87,19.35,moderate rain,0,0
11,Saint-Philippe,RE,2020-05-09 11:25:48,-21.36,55.77,80.6,61,20,18.34,few clouds,0,0
12,Faya,SA,2020-05-09 11:27:46,18.39,42.45,80.6,28,20,10.29,few clouds,0,0
13,New Norfolk,AU,2020-05-09 11:25:56,-42.78,147.06,44.01,81,55,2.84,broken clouds,0,0
14,Kruisfontein,ZA,2020-05-09 11:26:02,-34.0,24.73,75.2,48,0,7.76,clear sky,0,0
15,Kahului,US,2020-05-09 11:27:46,20.89,-156.47,73.4,78,90,10.29,overcast clouds,0,0
16,Balsas,BR,2020-05-09 11:23:09,-7.53,-46.04,77.18,82,100,6.11,light rain,0,0
17,Kaitangata,NZ,2020-05-09 11:25:54,-46.28,169.85,50.72,84,60,3.89,broken clouds,0,0
18,Bengkulu,ID,2020-05-09 11:27:46,-3.8,102.27,81.19,83,100,2.66,moderate rain,0,0
19,Narsaq,GL,2020-05-09 11:27:46,60.92,-46.05,51.8,14,20,21.92,few clouds,0,0
20,Bilibino,RU,2020-05-09 11:27:47,68.05,166.44,28.02,92,10,7.96,clear sky,0,0
21,Oriximina,BR,2020-05-09 11:27:27,-1.77,-55.87,76.48,93,26,3.96,scattered clouds,0,0
22,Ribeira Grande,PT,2020-05-09 11:25:58,38.52,-28.7,66.2,88,40,24.16,scattered clouds,0,0
23,Jamestown,US,2020-05-09 11:25:55,42.1,-79.24,24.8,73,75,10.29,broken clouds,0,0
24,Khatanga,RU,2020-05-09 11:26:05,71.97,102.5,34.16,99,100,13.15,light rain,0,0
25,Ushuaia,AR,2020-05-09 11:25:45,-54.8,-68.3,42.8,87,75,5.82,shower rain,0,0
26,Port Elizabeth,ZA,2020-05-09 11:25:56,-33.92,25.57,71.6,64,17,5.82,few clouds,0,0
27,Garowe,SO,2020-05-09 11:27:48,8.41,48.48,93.43,22,0,5.88,clear sky,0,0
28,Northampton,US,2020-05-09 11:27:48,40.88,-75.25,33.01,68,0,4.0,clear sky,0,0
29,Hermanus,ZA,2020-05-09 11:25:52,-34.42,19.23,78.01,48,2,1.99,clear sky,0,0
30,Albany,US,2020-05-09 11:21:06,42.6,-73.97,33.01,59,60,4.0,broken clouds,0,0
31,Gigmoto,PH,2020-05-09 11:27:48,13.78,124.39,81.77,77,13,5.28,few clouds,0,0
32,Clyde River,CA,2020-05-09 11:26:00,70.47,-68.59,12.2,78,90,16.11,overcast clouds,0,0
33,Filadelfia,US,2020-05-09 11:23:17,39.95,-75.16,36.0,43,20,12.75,few clouds,0,0
34,Punta Arenas,CL,2020-05-09 11:25:51,-53.15,-70.92,44.6,93,90,4.7,overcast clouds,0,0
35,Thompson,CA,2020-05-09 11:25:45,55.74,-97.86,17.6,92,75,9.17,broken clouds,0,0
36,Yulara,AU,2020-05-09 11:27:49,-25.24,130.99,62.6,36,59,6.93,broken clouds,0,0
37,Beira,MZ,2020-05-09 11:27:49,-19.84,34.84,80.6,65,40,13.87,scattered clouds,0,0
38,Kavieng,PG,2020-05-09 11:25:57,-2.57,150.8,83.5,78,3,8.52,clear sky,0,0
39,Ambulu,ID,2020-05-09 11:27:49,-8.35,113.61,79.86,86,83,5.73,moderate rain,0,0
40,Khash,IR,2020-05-09 11:27:49,28.22,61.22,90.1,10,0,5.79,clear sky,0,0
41,Port Alfred,ZA,2020-05-09 11:27:50,-33.59,26.89,66.0,94,0,5.99,clear sky,0,0
42,Shingu,JP,2020-05-09 11:27:50,33.73,135.98,64.4,72,75,13.87,light rain,0,0
43,Haines Junction,CA,2020-05-09 11:27:50,60.75,-137.51,42.15,62,27,0.34,scattered clouds,0,0
44,Mataura,NZ,2020-05-09 11:25:46,-46.19,168.86,49.14,89,75,3.65,broken clouds,0,0
45,Bendigo,AU,2020-05-09 11:27:50,-36.77,144.28,44.01,83,0,8.75,clear sky,0,0
46,Morgan City,US,2020-05-09 11:27:51,29.7,-91.21,62.6,82,90,17.22,overcast clouds,0,0
47,Klaksvik,FO,2020-05-09 11:27:51,62.23,-6.59,37.4,83,98,20.8,light snow,0,0
48,Dikson,RU,2020-05-09 11:27:51,73.51,80.55,31.64,96,99,18.59,overcast clouds,0,0
49,Hirado,JP,2020-05-09 11:27:51,33.36,129.55,69.01,94,75,11.41,light intensity shower rain,0,0
50,Butaritari,KI,2020-05-09 11:25:46,3.07,172.79,83.41,76,42,7.14,scattered clouds,0,0
51,Lyuban,BY,2020-05-09 11:27:51,52.8,28.0,61.36,50,14,6.55,few clouds,0,0
52,Kodiak,US,2020-05-09 11:27:52,57.79,-152.41,44.6,87,90,14.99,light rain,0,0
53,Arkhipovka,RU,2020-05-09 11:27:52,56.66,41.25,52.77,90,100,7.45,light rain,0,0
54,Pucallpa,PE,2020-05-09 11:24:05,-8.38,-74.55,66.2,93,40,1.1,scattered clouds,0,0
55,Moerai,PF,2020-05-09 11:23:04,-22.43,-151.33,77.43,74,0,9.57,clear sky,0,0
56,Volksrust,ZA,2020-05-09 11:27:52,-27.37,29.88,68.49,29,0,6.78,clear sky,0,0
57,Rikitea,PF,2020-05-09 11:25:49,-23.12,-134.97,75.06,73,39,4.76,scattered clouds,0,0
58,Ca Mau,VN,2020-05-09 11:27:52,9.18,105.15,87.49,65,100,5.95,overcast clouds,0,0
59,Muli,MV,2020-05-09 11:27:53,2.92,73.57,85.24,76,100,12.3,overcast clouds,0,0
60,Tabou,CI,2020-05-09 11:27:53,4.42,-7.35,86.61,67,79,5.12,light rain,0,0
61,Ponta Do Sol,PT,2020-05-09 11:27:53,32.67,-17.1,71.6,60,40,6.93,scattered clouds,0,0
62,Castro,BR,2020-05-09 11:27:53,-24.79,-50.01,49.33,91,80,6.17,broken clouds,0,0
63,Westport,US,2020-05-09 11:24:21,41.14,-73.36,36.0,59,1,24.16,clear sky,0,0
64,Kattivakkam,IN,2020-05-09 11:27:54,13.22,80.32,93.2,56,20,10.29,few clouds,0,0
65,Vila Franca Do Campo,PT,2020-05-09 11:27:54,37.72,-25.43,60.8,87,40,17.22,scattered clouds,0,0
66,Fortuna,US,2020-05-09 11:27:54,40.6,-124.16,51.01,100,90,2.71,overcast clouds,0,0
67,Teahupoo,PF,2020-05-09 11:27:54,-17.83,-149.27,78.8,83,40,3.36,scattered clouds,0,0
68,Cap-Haitien,HT,2020-05-09 11:27:55,19.76,-72.2,78.91,72,85,5.99,overcast clouds,0,0
69,Pangody,RU,2020-05-09 11:29:50,65.85,74.49,37.56,84,82,7.52,broken clouds,0,0
70,Imbituba,BR,2020-05-09 11:29:50,-28.24,-48.67,64.4,82,9,6.93,clear sky,0,0
71,San Patricio,MX,2020-05-09 11:25:51,19.22,-104.7,73.44,68,0,2.37,clear sky,0,0
72,Vaini,TO,2020-05-09 11:26:01,-21.2,-175.2,78.8,94,75,8.05,broken clouds,0,0
73,Hofn,IS,2020-05-09 11:29:50,64.25,-15.21,33.93,73,60,7.4,broken clouds,0,0
74,Port Macquarie,AU,2020-05-09 11:29:51,-31.43,152.92,57.99,93,85,9.55,overcast clouds,0,0
75,Yellowknife,CA,2020-05-09 11:22:01,62.46,-114.35,24.8,79,75,10.29,broken clouds,0,0
76,Bluff,NZ,2020-05-09 11:25:48,-46.6,168.33,54.3,83,15,12.39,few clouds,0,0
77,Przhevalskoye,RU,2020-05-09 11:29:51,55.51,31.85,60.69,38,67,4.27,broken clouds,0,0
78,Busselton,AU,2020-05-09 11:25:51,-33.65,115.33,50.0,56,0,2.46,clear sky,0,0
79,Mansa,IN,2020-05-09 11:29:51,29.98,75.38,108.23,9,26,6.22,scattered clouds,0,0
80,Okhotsk,RU,2020-05-09 11:29:51,59.38,143.3,33.46,90,8,5.84,clear sky,0,0
81,Castanos,MX,2020-05-09 11:29:52,26.78,-101.42,63.72,84,100,9.42,light rain,0,0
82,Barda,AZ,2020-05-09 11:29:52,40.37,47.13,71.6,49,90,21.92,overcast clouds,0,0
83,Cervo,ES,2020-05-09 11:29:52,43.67,-7.41,61.0,1,100,5.99,overcast clouds,0,0
84,Tomatlan,MX,2020-05-09 11:29:52,19.93,-105.25,72.3,74,0,1.48,clear sky,0,0
85,Mildura,AU,2020-05-09 11:29:52,-34.2,142.15,51.8,66,19,8.05,few clouds,0,0
86,Havre-Saint-Pierre,CA,2020-05-09 11:29:52,50.23,-63.6,37.4,86,90,9.17,overcast clouds,0,0
87,Paracuru,BR,2020-05-09 11:29:52,-3.41,-39.03,84.0,74,100,10.0,overcast clouds,0,0
88,Bredasdorp,ZA,2020-05-09 11:29:53,-34.53,20.04,69.8,26,44,10.29,scattered clouds,0,0
89,Acapulco,MX,2020-05-09 11:26:01,16.86,-99.89,77.0,83,20,2.19,few clouds,0,0
90,Jalu,LY,2020-05-09 11:29:53,29.03,21.55,81.09,15,3,4.0,clear sky,0,0
91,Saquena,PE,2020-05-09 11:29:53,-4.67,-73.52,68.32,95,86,1.21,overcast clouds,0,0
92,Saldanha,ZA,2020-05-09 11:25:48,-33.01,17.94,80.6,36,0,1.12,clear sky,0,0
93,Tuktoyaktuk,CA,2020-05-09 11:26:02,69.45,-133.04,23.68,96,0,14.99,clear sky,0,0
94,Hobyo,SO,2020-05-09 11:29:53,5.35,48.53,88.2,61,6,10.92,clear sky,0,0
95,Bay Roberts,CA,2020-05-09 11:29:54,47.6,-53.26,45.0,71,89,5.01,overcast clouds,0,0
96,Tasiilaq,GL,2020-05-09 11:25:49,65.61,-37.64,26.6,92,40,1.12,fog,0,0
97,Manokwari,ID,2020-05-09 11:25:53,-0.87,134.08,82.72,79,64,5.59,moderate rain,0,0
98,Bambous Virieux,MU,2020-05-09 11:29:54,-20.34,57.76,82.0,57,20,10.29,few clouds,0,0
99,Hobart,AU,2020-05-09 11:29:01,-42.88,147.33,46.4,70,20,4.7,few clouds,0,0
100,Comodoro Rivadavia,AR,2020-05-09 11:29:55,-45.87,-67.5,53.6,71,20,12.75,few clouds,0,0
101,Egvekinot,RU,2020-05-09 11:29:55,66.32,-179.17,29.84,95,88,13.4,overcast clouds,0,0
102,Anshun,CN,2020-05-09 11:29:55,26.25,105.93,70.83,70,0,18.75,clear sky,0,0
103,Robinson,US,2020-05-09 11:29:55,31.47,-97.11,55.99,76,75,5.82,broken clouds,0,0
104,Diplo,PK,2020-05-09 11:29:55,24.47,69.58,101.53,23,0,21.0,clear sky,0,0
105,Arraial Do Cabo,BR,2020-05-09 11:28:03,-22.97,-42.03,69.8,77,0,1.12,clear sky,0,0
106,Miranda,CO,2020-05-09 11:29:56,3.25,-76.23,69.8,94,75,2.24,broken clouds,0,0
107,Otradnoye,RU,2020-05-09 11:29:56,59.78,30.82,59.0,35,75,13.42,broken clouds,0,0
108,Pimentel,PE,2020-05-09 11:29:56,-6.84,-79.93,66.99,90,80,9.66,broken clouds,0,0
109,Kapaa,US,2020-05-09 11:25:56,22.08,-159.32,68.0,82,20,6.93,few clouds,0,0
110,Lata,PT,2020-05-09 11:29:56,40.16,-8.33,63.0,80,98,3.0,light rain,0,0
111,Duluth,US,2020-05-09 11:29:56,46.78,-92.11,35.01,55,80,5.82,broken clouds,0,0
112,East London,ZA,2020-05-09 11:25:53,-33.02,27.91,71.6,78,0,5.82,clear sky,0,0
113,Touros,BR,2020-05-09 11:25:59,-5.2,-35.46,80.6,78,75,8.05,broken clouds,0,0
114,Cape Town,ZA,2020-05-09 11:25:46,-33.93,18.42,75.99,64,0,6.93,clear sky,0,0
115,Chuy,UY,2020-05-09 11:29:57,-33.7,-53.46,49.12,84,13,6.55,few clouds,0,0
116,Geraldton,AU,2020-05-09 11:25:49,-28.77,114.6,64.4,63,100,11.41,overcast clouds,0,0
117,Diamantino,BR,2020-05-09 11:29:57,-14.41,-56.45,64.76,86,100,1.92,overcast clouds,0,0
118,Khani,GE,2020-05-09 11:29:57,41.96,42.96,60.8,67,90,3.36,overcast clouds,0,0
119,Georgetown,MY,2020-05-09 11:25:57,5.41,100.34,87.01,84,40,6.93,thunderstorm with light rain,0,0
120,Mangaldai,IN,2020-05-09 11:29:58,26.43,92.03,91.4,49,20,6.93,haze,0,0
121,Puerto Ayora,EC,2020-05-09 11:23:21,-0.74,-90.35,75.99,95,27,1.01,scattered clouds,0,0
122,Atbasar,KZ,2020-05-09 11:29:58,51.8,68.33,76.14,23,81,19.42,broken clouds,0,0
123,Biak,ID,2020-05-09 11:29:58,-0.91,122.88,80.15,81,100,5.44,moderate rain,0,0
124,Belmonte,BR,2020-05-09 11:25:54,-15.86,-38.88,69.8,88,75,6.93,broken clouds,0,0
125,Vila Velha,BR,2020-05-09 11:29:48,-20.33,-40.29,73.0,88,75,5.82,light rain,0,0
126,Abha,SA,2020-05-09 11:29:58,18.22,42.51,80.6,28,20,10.29,few clouds,0,0
127,Whitianga,NZ,2020-05-09 11:29:59,-36.83,175.7,54.0,90,45,7.31,scattered clouds,0,0
128,Avarua,CK,2020-05-09 11:29:59,-21.21,-159.78,78.8,83,7,4.7,clear sky,0,0
129,Sabang,ID,2020-05-09 11:29:59,5.89,95.32,77.81,91,100,8.25,heavy intensity rain,0,0
130,Coihaique,CL,2020-05-09 11:29:59,-45.58,-72.07,46.4,87,90,2.24,light rain,0,0
131,Zasheyek,RU,2020-05-09 11:29:59,67.41,32.55,36.14,94,84,5.91,light snow,0,0
132,Kanker,IN,2020-05-09 11:29:59,20.27,81.49,100.65,18,62,7.25,broken clouds,0,0
133,Zverinogolovskoye,RU,2020-05-09 11:29:59,54.46,64.85,80.76,26,1,14.65,clear sky,0,0
134,Yumen,CN,2020-05-09 11:30:00,40.28,97.2,68.92,16,76,19.48,broken clouds,0,0
135,Kloulklubed,PW,2020-05-09 11:30:00,7.04,134.26,78.8,88,90,6.93,overcast clouds,0,0
136,Labuhan,ID,2020-05-09 11:30:00,-6.88,112.21,82.62,80,100,6.42,moderate rain,0,0
137,Saint George,US,2020-05-09 11:28:56,37.1,-113.58,60.8,25,1,3.36,clear sky,0,0
138,Luanda,AO,2020-05-09 11:30:00,-8.84,13.23,87.8,66,40,6.93,scattered clouds,0,0
139,Torbay,CA,2020-05-09 11:25:47,47.67,-52.73,45.0,70,75,24.16,broken clouds,0,0
140,Tevriz,RU,2020-05-09 11:30:01,57.51,72.4,79.07,25,0,5.48,clear sky,0,0
141,Nanortalik,GL,2020-05-09 11:25:54,60.14,-45.24,39.18,70,0,5.97,clear sky,0,0
142,Norman Wells,CA,2020-05-09 11:30:01,65.28,-126.83,26.6,86,5,8.05,clear sky,0,0
143,Vila,PT,2020-05-09 11:30:01,42.03,-8.16,62.01,70,100,17.0,overcast clouds,0,0
144,Bathsheba,BB,2020-05-09 11:30:01,13.22,-59.52,82.4,69,20,21.92,few clouds,0,0
145,Pointe Michel,DM,2020-05-09 11:30:01,15.25,-61.38,82.4,61,40,8.05,scattered clouds,0,0
146,Upernavik,GL,2020-05-09 11:30:02,72.79,-56.15,20.82,95,100,11.79,overcast clouds,0,0
147,Ambilobe,MG,2020-05-09 11:30:02,-13.2,49.05,88.36,51,93,2.48,overcast clouds,0,0
148,Asfi,MA,2020-05-09 11:30:02,32.3,-9.24,65.62,67,14,10.36,few clouds,0,0
149,San Juan,AR,2020-05-09 11:30:02,-31.54,-68.54,57.24,48,5,2.55,clear sky,0,0
150,Mareeba,AU,2020-05-09 11:30:02,-17.0,145.43,73.4,78,40,3.36,scattered clouds,0,0
151,Hithadhoo,MV,2020-05-09 11:30:03,-0.6,73.08,84.54,79,100,14.0,overcast clouds,0,0
152,Orange,US,2020-05-09 11:30:03,33.7,-117.77,63.0,91,100,1.01,overcast clouds,0,0
153,Roanoke,US,2020-05-09 11:28:25,37.27,-79.94,37.4,59,40,3.36,scattered clouds,0,0
154,Sao Felix Do Xingu,BR,2020-05-09 11:30:04,-6.64,-51.99,80.44,75,3,2.73,clear sky,0,0
155,Ochamchira,GE,2020-05-09 11:30:04,42.71,41.47,60.58,64,49,9.78,scattered clouds,0,0
156,Balyaga,RU,2020-05-09 11:30:05,51.15,108.92,43.72,54,21,7.52,few clouds,0,0
157,Faanui,PF,2020-05-09 11:30:05,-16.48,-151.75,81.86,80,16,13.13,few clouds,0,0
158,Dwarka,IN,2020-05-09 11:30:05,22.24,68.97,86.4,73,0,15.17,clear sky,0,0
159,Lagoa,PT,2020-05-09 11:30:05,39.05,-27.98,62.76,92,80,21.77,broken clouds,0,0
160,Banjar,ID,2020-05-09 11:30:06,-8.19,114.97,82.4,94,20,9.17,few clouds,0,0
161,Sambava,MG,2020-05-09 11:30:06,-14.27,50.17,81.54,70,100,15.28,overcast clouds,0,0
162,Muros,ES,2020-05-09 11:30:06,42.78,-9.06,68.0,68,100,13.0,overcast clouds,0,0
163,Erdenet,MN,2020-05-09 11:30:06,49.03,104.08,38.89,71,82,1.97,broken clouds,0,0
164,Viedma,AR,2020-05-09 11:28:20,-40.81,-63.0,59.85,48,59,18.52,broken clouds,0,0
165,Virginia Beach,US,2020-05-09 11:28:34,36.85,-75.98,44.01,48,20,21.92,few clouds,0,0
166,Sitka,US,2020-05-09 11:30:06,57.05,-135.33,53.6,54,40,4.7,scattered clouds,0,0
167,Hasaki,JP,2020-05-09 11:30:07,35.73,140.83,64.4,72,75,9.17,light intensity shower rain,0,0
168,Los Llanos De Aridane,ES,2020-05-09 11:25:48,28.66,-17.92,75.2,64,75,8.05,broken clouds,0,0
169,Lebu,CL,2020-05-09 11:30:07,-37.62,-73.65,55.04,92,6,8.99,clear sky,0,0
170,Baruun-Urt,MN,2020-05-09 11:30:07,46.68,113.28,44.47,67,46,14.34,scattered clouds,0,0
171,Treinta Y Tres,UY,2020-05-09 11:30:07,-33.23,-54.38,51.91,75,38,7.29,scattered clouds,0,0
172,Lakhimpur,IN,2020-05-09 11:30:07,27.95,80.77,102.85,14,0,5.06,clear sky,0,0
173,Kungurtug,RU,2020-05-09 11:25:50,50.6,97.52,48.94,42,82,8.23,broken clouds,0,0
174,Olafsvik,IS,2020-05-09 11:30:08,64.89,-23.71,35.26,75,0,9.04,clear sky,0,0
175,Moree,AU,2020-05-09 11:30:08,-29.47,149.85,57.2,87,67,5.82,broken clouds,0,0
176,Pierre,US,2020-05-09 11:30:08,44.37,-100.35,46.0,70,40,10.29,scattered clouds,0,0
177,Umm Kaddadah,SD,2020-05-09 11:30:08,13.6,26.69,100.8,7,97,10.67,overcast clouds,0,0
178,Zhireken,RU,2020-05-09 11:30:09,52.82,117.31,46.94,51,99,7.92,overcast clouds,0,0
179,Sechura,PE,2020-05-09 11:30:09,-5.56,-80.82,70.7,82,87,9.55,overcast clouds,0,0
180,Avera,US,2020-05-09 11:30:09,33.19,-82.53,48.2,70,1,10.02,clear sky,0,0
181,Nikolskoye,RU,2020-05-09 11:30:09,59.7,30.79,59.0,35,75,13.42,broken clouds,0,0
182,Mahebourg,MU,2020-05-09 11:30:09,-20.41,57.7,80.6,57,20,10.29,few clouds,0,0
183,Kavaratti,IN,2020-05-09 11:30:10,10.57,72.64,91.4,66,20,5.82,few clouds,0,0
184,Kaeo,NZ,2020-05-09 11:30:10,-35.1,173.78,57.0,8,34,4.0,scattered clouds,0,0
185,Jumla,NP,2020-05-09 11:30:10,29.27,82.18,66.99,90,84,3.0,moderate rain,0,0
186,Diu,IN,2020-05-09 11:30:10,20.71,70.98,89.92,54,0,16.82,clear sky,0,0
187,Ucluelet,CA,2020-05-09 11:30:10,48.93,-125.55,53.01,75,98,7.18,overcast clouds,0,0
188,Eureka,US,2020-05-09 11:30:11,40.8,-124.16,52.0,95,100,2.84,overcast clouds,0,0
189,Rozsypne,UA,2020-05-09 11:30:11,48.15,38.58,57.74,62,69,13.62,light rain,0,0
190,Rocha,UY,2020-05-09 11:30:11,-34.48,-54.33,51.6,73,64,9.37,broken clouds,0,0
191,Harpanahalli,IN,2020-05-09 11:30:11,14.8,75.98,92.44,32,67,1.86,light rain,0,0
192,Sao Jose Da Coroa Grande,BR,2020-05-09 11:30:11,-8.9,-35.15,81.61,77,58,9.31,light rain,0,0
193,Katsuura,JP,2020-05-09 11:30:12,35.13,140.3,66.0,76,100,4.0,overcast clouds,0,0
194,Bundaberg,AU,2020-05-09 11:30:12,-24.85,152.35,71.01,88,13,5.82,few clouds,0,0
195,Shitanjing,CN,2020-05-09 11:30:12,39.23,106.34,62.01,26,23,6.02,few clouds,0,0
196,San Cristobal,VE,2020-05-09 11:30:12,7.77,-72.22,70.79,75,85,6.29,overcast clouds,0,0
197,Graham,US,2020-05-09 11:30:13,47.05,-122.29,52.0,93,1,2.62,clear sky,0,0
198,Kulhudhuffushi,MV,2020-05-09 11:30:13,6.62,73.07,85.82,76,94,7.47,moderate rain,0,0
199,Pevek,RU,2020-05-09 11:30:13,69.7,170.31,31.51,88,29,3.85,scattered clouds,0,0
200,Guerrero Negro,MX,2020-05-09 11:30:13,27.98,-114.06,63.52,83,0,5.7,clear sky,0,0
201,Luderitz,NA,2020-05-09 11:30:13,-26.65,15.16,71.6,49,0,12.75,clear sky,0,0
202,Rio Grande,BR,2020-05-09 11:29:32,-32.03,-52.1,46.99,100,0,2.24,clear sky,0,0
203,Vao,NC,2020-05-09 11:30:13,-22.67,167.48,73.2,79,16,17.94,light rain,0,0
204,Camacha,PT,2020-05-09 11:25:59,33.08,-16.33,69.8,60,20,18.34,few clouds,0,0
205,Tarazona,ES,2020-05-09 11:30:14,41.9,-1.73,75.2,38,40,11.41,light rain,0,0
206,Ugoofaaru,MV,2020-05-09 11:30:14,5.67,73.0,85.41,77,64,9.28,light rain,0,0
207,Katete,UG,2020-05-09 11:30:14,-0.78,29.75,79.39,58,81,1.54,light rain,0,0
208,Poya,NC,2020-05-09 11:30:14,-21.35,165.15,69.76,84,39,6.13,scattered clouds,0,0
209,Yenagoa,NG,2020-05-09 11:30:14,4.92,6.26,97.68,47,81,1.34,broken clouds,0,0
210,Santiago Del Estero,AR,2020-05-09 11:30:14,-27.8,-64.26,56.84,47,0,12.91,clear sky,0,0
211,Tazovskiy,RU,2020-05-09 11:30:15,67.47,78.7,34.3,89,90,12.66,overcast clouds,0,0
212,Norrtalje,SE,2020-05-09 11:30:15,59.76,18.7,53.6,34,35,6.93,scattered clouds,0,0
213,Hailun,CN,2020-05-09 11:30:15,47.45,126.93,59.0,36,100,6.64,overcast clouds,0,0
214,Black River,JM,2020-05-09 11:30:15,18.03,-77.85,78.8,78,20,1.12,few clouds,0,0
215,Lekoni,GA,2020-05-09 11:30:15,-1.58,14.26,91.24,46,72,1.36,broken clouds,0,0
216,Inhambane,MZ,2020-05-09 11:30:15,-23.86,35.38,80.6,57,40,11.41,scattered clouds,0,0
217,Pisco,PE,2020-05-09 11:25:52,-13.7,-76.22,62.01,93,91,1.12,mist,0,0
218,Cabo San Lucas,MX,2020-05-09 11:30:16,22.89,-109.91,66.0,53,0,10.02,clear sky,0,0
219,Wagga Wagga,AU,2020-05-09 11:30:16,-35.12,147.37,48.2,87,3,11.41,clear sky,0,0
220,Kasongo-Lunda,CD,2020-05-09 11:30:16,-6.47,16.82,89.73,49,59,3.2,light rain,0,0
221,Envira,BR,2020-05-09 11:30:16,-7.3,-70.22,68.61,79,60,3.38,broken clouds,0,0
222,Mahon,ES,2020-05-09 11:27:18,39.89,4.27,66.2,88,75,8.05,broken clouds,0,0
223,Tres Arroyos,AR,2020-05-09 11:28:08,-38.37,-60.28,51.89,74,79,18.3,broken clouds,0,0
224,Jalingo,NG,2020-05-09 11:30:17,8.88,11.37,99.77,37,54,4.25,broken clouds,0,0
225,Nabire,ID,2020-05-09 11:30:17,-3.37,135.48,80.69,81,64,1.61,broken clouds,0,0
226,Lorengau,PG,2020-05-09 11:30:17,-2.02,147.27,82.94,78,14,7.54,few clouds,0,0
227,Putina,PE,2020-05-09 11:30:17,-15.47,-69.43,43.61,62,75,2.13,broken clouds,0,0
228,Vanimo,PG,2020-05-09 11:30:17,-2.67,141.3,80.69,80,63,2.95,broken clouds,0,0
229,Codrington,AU,2020-05-09 11:30:17,-38.27,141.97,47.64,67,50,18.77,light rain,0,0
230,Tabriz,IR,2020-05-09 11:26:53,38.08,46.29,73.4,31,90,6.93,overcast clouds,0,0
231,Tanout,NE,2020-05-09 11:30:18,14.97,8.89,104.47,13,1,12.68,clear sky,0,0
232,Gaurnadi,BD,2020-05-09 11:30:18,22.97,90.23,93.15,37,11,8.12,few clouds,0,0
233,Flinders,AU,2020-05-09 11:30:18,-34.58,150.86,64.0,55,1,7.0,clear sky,0,0
234,Danane,CI,2020-05-09 11:30:18,7.26,-8.15,86.0,62,89,5.26,overcast clouds,0,0
235,Svetlogorsk,BY,2020-05-09 11:30:19,52.63,29.73,60.17,44,68,4.09,broken clouds,0,0
236,Atar,MR,2020-05-09 11:30:19,20.52,-13.05,99.1,9,26,15.82,scattered clouds,0,0
237,Nushki,PK,2020-05-09 11:30:19,29.55,66.02,97.0,9,0,12.28,clear sky,0,0
238,Salaspils,LV,2020-05-09 11:30:19,56.86,24.37,59.0,51,20,8.05,few clouds,0,0
239,Praia Da Vitoria,PT,2020-05-09 11:30:19,38.73,-27.07,64.4,88,75,10.6,broken clouds,0,0
240,Laramie,US,2020-05-09 11:29:29,41.31,-105.59,34.0,86,1,11.41,clear sky,0,0
241,Ocos,GT,2020-05-09 11:30:20,14.51,-92.19,82.92,74,52,9.01,broken clouds,0,0
242,Kudinovo,RU,2020-05-09 11:30:20,55.0,36.25,53.6,62,75,8.95,broken clouds,0,0
243,Akhtanizovskaya,RU,2020-05-09 11:30:20,45.32,37.1,62.6,45,40,17.9,scattered clouds,0,0
244,Port Augusta,AU,2020-05-09 11:30:20,-32.5,137.77,55.4,62,11,6.93,few clouds,0,0
245,Saskylakh,RU,2020-05-09 11:26:03,71.92,114.08,18.37,94,39,17.52,scattered clouds,0,0
246,Gat,IL,2020-05-09 11:26:00,31.61,34.76,78.01,57,41,5.01,scattered clouds,0,0
247,Gorom-Gorom,BF,2020-05-09 11:30:21,14.44,-0.24,105.13,14,3,1.61,clear sky,0,0
248,Ahipara,NZ,2020-05-09 11:30:21,-35.17,173.17,55.15,87,18,4.41,few clouds,0,0
249,Ternate,ID,2020-05-09 11:30:21,0.8,127.4,84.33,72,91,3.78,overcast clouds,0,0
250,Orsha,BY,2020-05-09 11:30:21,54.52,30.41,62.6,51,59,8.95,broken clouds,0,0
251,Nieuw Amsterdam,SR,2020-05-09 11:30:21,5.88,-55.08,81.0,88,20,4.7,few clouds,0,0
252,Husavik,IS,2020-05-09 11:30:21,66.04,-17.34,35.6,43,40,6.93,scattered clouds,0,0
253,Port-Gentil,GA,2020-05-09 11:30:21,-0.72,8.78,84.2,79,20,4.7,few clouds,0,0
254,Hirara,JP,2020-05-09 11:30:22,24.8,125.28,78.8,83,40,10.29,scattered clouds,0,0
255,Esperance,AU,2020-05-09 11:30:22,-33.87,121.9,51.8,87,50,4.7,scattered clouds,0,0
256,Arawa,PG,2020-05-09 11:30:22,-6.21,155.54,78.73,82,95,3.65,overcast clouds,0,0
257,Atikokan,CA,2020-05-09 11:30:22,48.76,-91.62,26.31,88,0,5.44,clear sky,0,0
258,Presidente Epitacio,BR,2020-05-09 11:26:55,-21.76,-52.12,56.52,81,0,6.26,clear sky,0,0
259,Valmiera,LV,2020-05-09 11:30:22,57.54,25.43,63.93,47,44,2.39,scattered clouds,0,0
260,Airai,TL,2020-05-09 11:30:22,-8.93,125.41,58.62,100,87,3.4,overcast clouds,0,0
261,Talnakh,RU,2020-05-09 11:30:23,69.49,88.4,32.0,98,75,13.42,broken clouds,0,0
262,Provideniya,RU,2020-05-09 11:25:56,64.38,-173.3,33.71,91,35,13.89,scattered clouds,0,0
263,Umm Lajj,SA,2020-05-09 11:30:23,25.02,37.27,82.65,49,97,16.67,overcast clouds,0,0
264,Warrnambool,AU,2020-05-09 11:30:23,-38.38,142.48,46.99,81,79,21.74,light rain,0,0
265,Caravelas,BR,2020-05-09 11:26:02,-17.71,-39.25,74.55,68,99,12.03,overcast clouds,0,0
266,Santa Cruz Verapaz,GT,2020-05-09 11:30:23,15.37,-90.43,62.73,98,100,3.22,light rain,0,0
267,Wagar,SD,2020-05-09 11:30:23,16.15,36.2,107.83,9,75,5.57,broken clouds,0,0
268,Barrow,US,2020-05-09 11:30:24,71.29,-156.79,17.6,92,1,6.93,clear sky,0,0
269,Marihatag,PH,2020-05-09 11:30:24,8.79,126.3,82.78,81,93,8.46,overcast clouds,0,0
270,Alegria,PH,2020-05-09 11:30:24,9.47,125.58,80.71,86,77,8.08,light rain,0,0
271,Walvis Bay,NA,2020-05-09 11:30:24,-22.96,14.51,75.2,47,0,9.17,clear sky,0,0
272,Wonthaggi,AU,2020-05-09 11:30:24,-38.6,145.59,45.0,87,100,5.99,light rain,0,0
273,Inirida,CO,2020-05-09 11:30:25,3.87,-67.92,74.5,96,96,1.19,overcast clouds,0,0
274,Melfi,IT,2020-05-09 11:30:25,41.0,15.65,80.6,26,0,2.06,clear sky,0,0
275,Burns Lake,CA,2020-05-09 11:30:25,54.23,-125.75,39.63,75,39,3.06,scattered clouds,0,0
276,Klaebu,NO,2020-05-09 11:27:15,63.3,10.48,44.6,65,90,5.82,light rain,0,0
277,Mount Gambier,AU,2020-05-09 11:26:57,-37.83,140.77,44.6,87,40,12.75,scattered clouds,0,0
278,Cocal,BR,2020-05-09 11:30:25,-28.62,-49.35,63.21,47,11,2.19,few clouds,0,0
279,Robertsport,LR,2020-05-09 11:30:26,6.75,-11.37,84.4,74,100,9.33,light rain,0,0
280,Tuatapere,NZ,2020-05-09 11:25:53,-46.13,167.68,52.59,83,26,6.58,scattered clouds,0,0
281,Fort Nelson,CA,2020-05-09 11:30:26,58.81,-122.7,39.74,70,87,4.27,overcast clouds,0,0
282,Maragogi,BR,2020-05-09 11:25:50,-9.01,-35.22,80.26,79,63,7.61,light rain,0,0
283,Grand Gaube,MU,2020-05-09 11:30:26,-20.01,57.66,82.0,58,0,5.01,clear sky,0,0
284,Grudziadz,PL,2020-05-09 11:30:26,53.48,18.75,68.0,57,80,5.01,light rain,0,0
285,Port Moresby,PG,2020-05-09 11:30:27,-9.44,147.18,80.6,88,20,11.41,few clouds,0,0
286,Te Anau,NZ,2020-05-09 11:30:27,-45.42,167.72,50.02,87,100,2.57,overcast clouds,0,0
287,Bubaque,GW,2020-05-09 11:25:48,11.28,-15.83,77.81,74,97,14.92,overcast clouds,0,0
288,Port Lincoln,AU,2020-05-09 11:30:27,-34.73,135.87,54.27,66,33,9.91,scattered clouds,0,0
289,Chokurdakh,RU,2020-05-09 11:30:27,70.63,147.92,28.36,98,98,5.26,overcast clouds,0,0
290,Srednekolymsk,RU,2020-05-09 11:25:56,67.45,153.68,30.52,99,80,8.3,broken clouds,0,0
291,Gaoual,GN,2020-05-09 11:30:28,11.75,-13.2,99.86,31,97,6.13,overcast clouds,0,0
292,Nakamura,JP,2020-05-09 11:30:28,32.98,132.93,67.57,94,99,6.8,light rain,0,0
293,Minas,UY,2020-05-09 11:30:28,-34.38,-55.24,59.0,81,93,2.24,overcast clouds,0,0
294,Bethel,US,2020-05-09 11:25:49,41.37,-73.41,33.01,92,1,17.22,clear sky,0,0
295,Palauig,PH,2020-05-09 11:30:29,15.44,119.9,84.52,77,62,6.67,light rain,0,0
296,Santa Fe,AR,2020-05-09 11:27:19,-31.63,-60.7,51.01,78,80,5.01,broken clouds,0,0
297,Oshawa,CA,2020-05-09 11:29:37,43.9,-78.85,30.0,79,1,11.41,clear sky,0,0
298,Pskov,RU,2020-05-09 11:30:29,57.81,28.35,60.8,38,40,8.95,scattered clouds,0,0
299,Itarema,BR,2020-05-09 11:30:29,-2.92,-39.92,81.63,80,97,8.43,overcast clouds,0,0
300,Leningradskiy,RU,2020-05-09 11:30:30,69.38,178.42,23.04,94,98,7.47,overcast clouds,0,0
301,Cidreira,BR,2020-05-09 11:25:49,-30.18,-50.21,58.78,72,0,5.48,clear sky,0,0
302,Basoko,CD,2020-05-09 11:30:30,1.24,23.62,82.51,66,79,6.13,light rain,0,0
303,Komsomolskiy,UZ,2020-05-09 11:30:30,40.43,71.72,77.0,29,67,6.93,light rain,0,0
304,Kashira,RU,2020-05-09 11:30:30,54.84,38.17,55.99,62,75,13.42,broken clouds,0,0
305,Arzgir,RU,2020-05-09 11:30:30,45.37,44.22,61.75,61,79,13.51,light rain,0,0
306,College,US,2020-05-09 11:30:31,64.86,-147.8,50.0,52,75,6.93,broken clouds,0,0
307,Bure,ET,2020-05-09 11:30:31,10.7,37.07,75.0,49,89,3.36,light rain,0,0
308,Maxixe,MZ,2020-05-09 11:30:31,-23.86,35.35,80.6,57,40,11.41,scattered clouds,0,0
309,Silleda,ES,2020-05-09 11:30:32,42.7,-8.25,68.0,72,40,6.93,scattered clouds,0,0
310,Yanam,IN,2020-05-09 11:30:26,16.73,82.22,90.27,56,3,9.71,clear sky,0,0
311,Mandera,KE,2020-05-09 11:30:32,3.94,41.87,92.79,43,57,14.7,broken clouds,0,0
312,Nakapiripirit,UG,2020-05-09 11:30:32,1.92,34.78,78.78,60,74,4.07,light rain,0,0
313,Sao Filipe,CV,2020-05-09 11:25:57,14.9,-24.5,74.43,75,67,12.39,broken clouds,0,0
314,Pringsewu,ID,2020-05-09 11:30:33,-5.36,104.97,77.25,91,99,2.42,moderate rain,0,0
315,Vestmannaeyjar,IS,2020-05-09 11:30:33,63.44,-20.27,41.0,65,20,20.8,few clouds,0,0
316,Methoni,GR,2020-05-09 11:25:59,36.82,21.7,77.0,29,87,9.17,overcast clouds,0,0
317,Hamilton,US,2020-05-09 11:30:13,39.18,-84.53,32.0,86,1,5.88,clear sky,0,0
318,Bikin,RU,2020-05-09 11:30:33,46.82,134.26,54.91,79,100,1.99,light rain,0,0
319,Ilulissat,GL,2020-05-09 11:25:50,69.22,-51.1,30.2,80,75,3.36,broken clouds,0,0
320,Margate,GB,2020-05-09 11:26:04,51.38,1.39,64.99,68,2,5.01,clear sky,0,0
321,Samarai,PG,2020-05-09 11:30:34,-10.62,150.67,80.55,82,70,16.35,broken clouds,0,0
322,Kenora,CA,2020-05-09 11:28:01,49.82,-94.43,26.6,73,20,4.7,few clouds,0,0
323,Kyabram,AU,2020-05-09 11:30:34,-36.32,145.05,50.0,66,3,11.23,clear sky,0,0
324,Mar Del Plata,AR,2020-05-09 11:24:48,-38.0,-57.56,55.99,87,100,10.29,overcast clouds,0,0
325,Hualmay,PE,2020-05-09 11:30:34,-11.1,-77.61,66.96,85,78,6.71,broken clouds,0,0
326,Tessalit,ML,2020-05-09 11:30:35,20.2,1.01,103.51,7,0,5.14,clear sky,0,0
327,Laguna,US,2020-05-09 11:30:35,38.42,-121.42,63.0,59,1,3.36,clear sky,0,0
328,Moussoro,TD,2020-05-09 11:30:35,13.64,16.49,108.43,6,8,14.61,clear sky,0,0
329,Calamar,CO,2020-05-09 11:30:35,10.25,-74.91,82.4,88,40,4.7,haze,0,0
330,Suratgarh,IN,2020-05-09 11:30:35,29.32,73.9,109.98,8,29,13.0,scattered clouds,0,0
331,Port Keats,AU,2020-05-09 11:30:36,-14.25,129.55,77.74,60,69,4.61,broken clouds,0,0
332,Hayesville,US,2020-05-09 11:30:36,44.99,-122.98,54.0,66,1,2.82,clear sky,0,0
333,Tuensang,IN,2020-05-09 11:30:36,26.28,94.83,70.39,66,34,0.74,scattered clouds,0,0
334,Bulalacao,PH,2020-05-09 11:30:36,12.33,121.34,82.92,77,21,4.76,few clouds,0,0
335,Saint-Pierre,RE,2020-05-09 11:30:36,-21.34,55.48,80.6,61,20,18.34,few clouds,0,0
336,Obigarm,TJ,2020-05-09 11:26:06,38.72,69.71,65.93,48,65,4.9,moderate rain,0,0
337,Galveston,US,2020-05-09 11:30:37,29.37,-94.97,64.99,76,94,7.0,overcast clouds,0,0
338,The Pas,CA,2020-05-09 11:30:37,53.83,-101.25,26.6,79,1,3.36,clear sky,0,0
339,Iwanai,JP,2020-05-09 11:30:37,42.97,140.51,48.69,68,73,4.85,broken clouds,0,0
340,Huilong,CN,2020-05-09 11:30:37,31.81,121.66,82.0,79,3,5.91,clear sky,0,0
341,Hervey Bay,AU,2020-05-09 11:30:37,-25.3,152.85,71.01,77,52,3.0,broken clouds,0,0
342,Ziro,IN,2020-05-09 11:30:37,27.63,93.83,87.8,55,20,2.24,few clouds,0,0
343,Rosarito,MX,2020-05-09 11:30:37,32.33,-117.03,64.0,88,90,3.38,overcast clouds,0,0
344,Port Hardy,CA,2020-05-09 11:30:38,50.7,-127.42,41.0,93,40,2.24,scattered clouds,0,0
345,Davila,PH,2020-05-09 11:30:38,18.47,120.58,86.0,79,20,9.17,few clouds,0,0
346,Vardo,NO,2020-05-09 11:30:38,70.37,31.11,37.4,59,40,5.82,shower rain,0,0
347,Sibolga,ID,2020-05-09 11:30:38,1.74,98.78,80.31,85,100,3.04,light rain,0,0
348,Taltal,CL,2020-05-09 11:30:38,-25.4,-70.48,61.59,63,45,1.34,scattered clouds,0,0
349,Jinchang,CN,2020-05-09 11:30:38,38.5,102.17,63.09,19,92,7.47,overcast clouds,0,0
350,San Luis,AR,2020-05-09 11:24:01,-33.3,-66.34,52.9,57,47,5.77,scattered clouds,0,0
351,San Ignacio,BZ,2020-05-09 11:30:39,17.16,-89.07,75.0,86,100,1.05,overcast clouds,0,0
352,Bonavista,CA,2020-05-09 11:25:45,48.65,-53.11,41.0,86,1,18.99,clear sky,0,0
353,Micheweni,TZ,2020-05-09 11:30:39,-4.97,39.83,80.62,81,51,16.91,light rain,0,0
354,Cherskiy,RU,2020-05-09 11:25:54,68.75,161.3,33.51,86,0,8.99,clear sky,0,0
355,Aksarka,RU,2020-05-09 11:30:39,66.56,67.8,39.63,88,96,7.29,overcast clouds,0,0
356,Yuancheng,CN,2020-05-09 11:30:40,36.65,107.79,60.12,29,17,1.72,few clouds,0,0
357,Lavrentiya,RU,2020-05-09 11:26:04,65.58,-171.0,32.04,95,23,10.33,few clouds,0,0
358,Poso,ID,2020-05-09 11:30:40,-1.4,120.75,80.74,78,100,3.36,light rain,0,0
359,Tralee,IE,2020-05-09 11:30:40,52.27,-9.7,69.8,60,100,4.7,overcast clouds,0,0
360,Pitsunda,GE,2020-05-09 11:30:40,43.16,40.34,59.0,62,40,4.47,scattered clouds,0,0
361,Sorong,ID,2020-05-09 11:30:41,-0.88,131.25,82.17,86,100,12.82,light rain,0,0
362,Sao Joao Da Barra,BR,2020-05-09 11:30:41,-21.64,-41.05,68.0,88,40,9.17,scattered clouds,0,0
363,Boguchany,RU,2020-05-09 11:30:41,58.38,97.45,54.82,66,82,7.72,broken clouds,0,0
364,Churapcha,RU,2020-05-09 11:30:41,62.0,132.43,30.38,95,92,7.4,overcast clouds,0,0
365,Tigil,RU,2020-05-09 11:30:41,57.8,158.67,31.1,97,100,17.92,overcast clouds,0,0
366,Mayumba,GA,2020-05-09 11:30:41,-3.43,10.66,81.77,74,99,4.54,overcast clouds,0,0
367,Bacalar,MX,2020-05-09 11:30:42,18.67,-88.38,78.1,90,99,3.44,light rain,0,0
368,Lompoc,US,2020-05-09 11:30:42,34.64,-120.46,57.0,100,90,5.82,fog,0,0
369,Sorland,NO,2020-05-09 11:30:42,67.67,12.69,37.4,55,40,8.05,shower rain,0,0
370,Kenai,US,2020-05-09 11:30:42,60.55,-151.26,48.2,70,90,8.05,overcast clouds,0,0
371,Alofi,NU,2020-05-09 11:30:42,-19.06,-169.92,75.2,100,67,3.36,broken clouds,0,0
372,Morros,BR,2020-05-09 11:30:42,-9.45,-46.3,78.33,73,67,12.41,broken clouds,0,0
373,Xuanzhou,CN,2020-05-09 11:30:43,30.95,118.76,69.55,68,13,4.59,few clouds,0,0
374,Constitucion,CL,2020-05-09 11:30:43,-35.33,-72.42,55.24,91,62,0.87,broken clouds,0,0
375,Misratah,LY,2020-05-09 11:30:43,32.38,15.09,74.19,45,2,17.74,clear sky,0,0
376,Khandbari,NP,2020-05-09 11:30:43,27.37,87.2,80.6,37,18,2.57,few clouds,0,0
377,Broken Hill,AU,2020-05-09 11:30:43,-31.95,141.43,51.8,43,0,11.41,clear sky,0,0
378,Iqaluit,CA,2020-05-09 11:30:43,63.75,-68.51,32.0,95,75,2.24,broken clouds,0,0
379,Nyurba,RU,2020-05-09 11:30:43,63.28,118.33,33.55,77,7,1.86,clear sky,0,0
380,Coquimbo,CL,2020-05-09 11:30:44,-29.95,-71.34,55.4,82,37,6.93,scattered clouds,0,0
381,Sikeston,US,2020-05-09 11:30:44,36.88,-89.59,39.2,93,1,3.11,clear sky,0,0
382,Zheleznodorozhnyy,RU,2020-05-09 11:30:44,55.75,38.0,59.0,62,90,13.42,overcast clouds,0,0
383,Saint-Leu,RE,2020-05-09 11:30:44,-21.15,55.28,80.6,61,20,18.34,few clouds,0,0
384,Zaozerne,UA,2020-05-09 11:30:44,45.16,33.28,59.63,60,15,12.57,few clouds,0,0
385,Sioux Lookout,CA,2020-05-09 11:30:40,50.1,-91.92,24.8,73,20,9.17,few clouds,0,0
386,Bambui,BR,2020-05-09 11:30:45,-20.01,-45.98,64.29,71,58,5.01,broken clouds,0,0
387,Wanaka,NZ,2020-05-09 11:30:45,-44.7,169.15,47.7,77,24,4.05,few clouds,0,0
388,Namibe,AO,2020-05-09 11:30:45,-15.2,12.15,98.6,44,0,18.34,clear sky,0,0
389,Alenquer,BR,2020-05-09 11:30:45,-1.94,-54.74,78.8,94,20,2.24,few clouds,0,0
390,Nevelsk,RU,2020-05-09 11:30:45,46.67,141.86,50.0,61,100,2.24,overcast clouds,0,0
391,Verkhnetulomskiy,RU,2020-05-09 11:30:46,68.61,31.8,41.0,52,85,4.47,overcast clouds,0,0
392,Pavlodar,KZ,2020-05-09 11:30:46,52.3,76.95,78.8,14,0,24.61,clear sky,0,0
393,Douglas,US,2020-05-09 11:30:46,41.3,-96.17,35.6,93,1,7.14,mist,0,0
394,Neosho,US,2020-05-09 11:30:20,36.87,-94.37,36.0,94,0,4.72,clear sky,0,0
395,Mundo Nuevo,MX,2020-05-09 11:30:46,18.7,-95.5,79.7,80,10,2.35,clear sky,0,0
396,Berbera,SO,2020-05-09 11:30:47,10.44,45.01,91.22,57,8,14.38,clear sky,0,0
397,Marsa Matruh,EG,2020-05-09 11:30:47,31.35,27.25,69.89,48,0,14.61,clear sky,0,0
398,Maningrida,AU,2020-05-09 11:30:47,-12.07,134.27,77.32,79,25,13.33,scattered clouds,0,0
399,Edgewater,US,2020-05-09 11:30:47,28.99,-80.9,64.99,93,5,5.82,clear sky,0,0
400,Miraflores,MX,2020-05-09 11:30:47,19.22,-98.81,59.0,77,90,4.7,overcast clouds,0,0
401,Natal,BR,2020-05-09 11:30:47,-5.79,-35.21,80.6,78,75,8.05,broken clouds,0,0
402,Kralendijk,BQ,2020-05-09 11:26:35,12.15,-68.27,80.6,83,91,23.04,overcast clouds,0,0
403,Cootamundra,AU,2020-05-09 11:30:48,-34.65,148.03,46.99,85,8,3.0,clear sky,0,0
404,Buala,SB,2020-05-09 11:30:48,-8.14,159.59,81.82,83,1,5.23,light rain,0,0
405,Dabat,ET,2020-05-09 11:30:48,12.98,37.77,72.07,39,75,8.23,broken clouds,0,0
406,Dergachi,RU,2020-05-09 11:30:48,51.23,48.77,65.7,63,87,12.26,light rain,0,0
407,Ponta Delgada,PT,2020-05-09 11:21:29,37.73,-25.67,60.8,87,40,17.22,scattered clouds,0,0
408,Kalabo,ZM,2020-05-09 11:30:48,-14.97,22.68,83.86,33,5,8.41,clear sky,0,0
409,Sar-E Pul,AF,2020-05-09 11:30:49,35.83,66.17,64.92,56,30,7.76,light rain,0,0
410,Nizwa,OM,2020-05-09 11:30:49,22.93,57.53,105.94,5,0,5.93,clear sky,0,0
411,Quatre Cocos,MU,2020-05-09 11:30:49,-20.21,57.76,82.0,57,20,10.29,few clouds,0,0
412,Mamakan,RU,2020-05-09 11:30:49,57.82,114.0,41.86,64,100,4.05,overcast clouds,0,0
413,Padang,ID,2020-05-09 11:30:49,-0.95,100.35,82.09,69,100,2.06,overcast clouds,0,0
414,Alice Springs,AU,2020-05-09 11:30:49,-23.7,133.88,64.4,34,46,8.05,scattered clouds,0,0
415,Jose Bonifacio,BR,2020-05-09 11:30:50,-21.05,-49.69,59.0,58,0,3.36,clear sky,0,0
416,Popondetta,PG,2020-05-09 11:30:50,-8.75,148.25,75.29,93,98,2.08,overcast clouds,0,0
417,Morant Bay,JM,2020-05-09 11:30:50,17.88,-76.41,80.6,74,40,8.05,scattered clouds,0,0
418,Tura,IN,2020-05-09 11:30:50,25.52,90.22,83.17,38,21,3.69,few clouds,0,0
419,Plettenberg Bay,ZA,2020-05-09 11:30:50,-34.05,23.37,70.2,61,0,6.2,clear sky,0,0
420,Corinto,GR,2020-05-09 11:27:33,37.94,22.96,75.0,57,14,4.0,few clouds,0,0
421,Quelimane,MZ,2020-05-09 11:30:51,-17.88,36.89,77.0,83,75,6.93,broken clouds,0,0
422,Sur,OM,2020-05-09 11:30:51,22.57,59.53,90.45,42,0,8.41,clear sky,0,0
423,Mbanza-Ngungu,CD,2020-05-09 11:30:51,-5.25,14.87,84.0,72,42,0.31,moderate rain,0,0
424,Matay,EG,2020-05-09 11:30:51,28.42,30.78,86.22,21,3,13.65,clear sky,0,0
425,Buraydah,SA,2020-05-09 11:30:51,26.33,43.98,100.4,29,100,14.99,overcast clouds,0,0
426,Coahuayana,MX,2020-05-09 11:30:51,18.73,-103.68,74.62,57,0,2.62,clear sky,0,0
427,San Quintin,MX,2020-05-09 11:30:52,30.48,-115.95,63.03,86,33,3.67,scattered clouds,0,0
428,Qaqortoq,GL,2020-05-09 11:30:52,60.72,-46.03,51.8,14,20,21.92,few clouds,0,0
429,Cockburn Town,TC,2020-05-09 11:30:52,21.46,-71.14,81.09,81,75,20.51,broken clouds,0,0
430,Hambantota,LK,2020-05-09 11:30:52,6.12,81.12,84.99,79,90,13.11,light rain,0,0
431,Makhinjauri,GE,2020-05-09 11:30:52,41.67,41.69,57.2,71,40,6.93,scattered clouds,0,0
432,Chikwawa,MW,2020-05-09 11:30:53,-16.03,34.8,84.2,43,58,7.58,broken clouds,0,0
433,Usak,TR,2020-05-09 11:30:53,38.5,29.42,66.99,10,0,58.0,clear sky,0,0
434,Balikpapan,ID,2020-05-09 11:30:42,-1.27,116.83,81.21,82,96,2.98,overcast clouds,0,0
435,Hami,CN,2020-05-09 11:30:53,42.8,93.45,73.4,18,5,16.75,clear sky,0,0
436,Sarahan,IN,2020-05-09 11:30:53,31.52,77.8,57.29,64,90,1.32,light rain,0,0
437,Balangiga,PH,2020-05-09 11:30:53,11.11,125.39,81.64,83,47,8.9,scattered clouds,0,0
438,Madera,US,2020-05-09 11:30:54,37.17,-119.83,64.99,52,76,2.66,broken clouds,0,0
439,Amapa,BR,2020-05-09 11:25:48,1.0,-52.0,75.6,91,98,3.42,overcast clouds,0,0
440,Acarau,BR,2020-05-09 11:29:03,-2.89,-40.12,79.56,88,90,8.28,overcast clouds,0,0
441,Promyshlennovskiy,RU,2020-05-09 11:30:54,55.48,86.2,73.4,28,6,2.24,clear sky,0,0
442,Pirovskoye,RU,2020-05-09 11:30:54,57.63,92.27,60.96,58,64,7.61,broken clouds,0,0
443,Richards Bay,ZA,2020-05-09 11:30:54,-28.78,32.04,76.62,65,20,5.12,few clouds,0,0
444,Oistins,BB,2020-05-09 11:28:38,13.07,-59.53,82.4,69,20,21.92,few clouds,0,0
445,Verkhnyaya Inta,RU,2020-05-09 11:30:55,65.98,60.31,50.29,52,34,1.72,scattered clouds,0,0
446,Pudozh,RU,2020-05-09 11:30:55,61.81,36.53,54.64,56,61,10.98,broken clouds,0,0
447,North Platte,US,2020-05-09 11:30:55,41.12,-100.77,45.0,52,75,4.7,broken clouds,0,0
448,Victoria,HK,2020-05-09 11:23:48,22.29,114.16,84.0,79,73,11.01,broken clouds,0,0
449,Do Gonbadan,IR,2020-05-09 11:30:55,30.36,50.8,96.8,18,64,9.71,broken clouds,0,0
450,Lodwar,KE,2020-05-09 11:30:55,3.12,35.6,93.6,33,92,10.13,overcast clouds,0,0
451,Dunedin,NZ,2020-05-09 11:30:00,-45.87,170.5,50.0,95,31,1.01,scattered clouds,0,0
452,Longyearbyen,SJ,2020-05-09 11:30:56,78.22,15.64,23.0,57,40,13.87,scattered clouds,0,0
453,Boa Vista,BR,2020-05-09 11:30:56,2.82,-60.67,75.2,94,75,5.82,broken clouds,0,0
454,Azul,AR,2020-05-09 11:30:56,-36.78,-59.86,48.0,87,98,1.99,overcast clouds,0,0
455,Namatanai,PG,2020-05-09 11:30:56,-3.67,152.43,81.64,81,16,7.23,few clouds,0,0
456,High Level,CA,2020-05-09 11:30:56,58.52,-117.14,30.2,92,40,6.93,scattered clouds,0,0
457,Zambrow,PL,2020-05-09 11:30:56,52.99,22.24,66.0,50,30,8.77,scattered clouds,0,0
458,Ancud,CL,2020-05-09 11:25:51,-41.87,-73.82,52.0,100,20,10.29,few clouds,0,0
459,Takaka,NZ,2020-05-09 11:30:57,-40.85,172.8,50.0,92,0,1.99,clear sky,0,0
460,Kassala,SD,2020-05-09 11:30:57,15.45,36.4,106.02,8,49,4.72,scattered clouds,0,0
461,Alyangula,AU,2020-05-09 11:30:57,-13.85,136.42,75.2,100,75,1.12,broken clouds,0,0
462,Ronne,DK,2020-05-09 11:30:10,55.1,14.71,51.8,87,59,8.05,broken clouds,0,0
463,Abonnema,NG,2020-05-09 11:30:57,4.71,6.79,95.85,46,22,4.36,few clouds,0,0
464,Jiwani,PK,2020-05-09 11:30:58,25.05,61.74,88.02,54,0,14.54,clear sky,0,0
465,Road Town,VG,2020-05-09 11:30:58,18.42,-64.62,82.99,78,20,8.05,few clouds,0,0
466,Adrar,MR,2020-05-09 11:30:58,20.5,-10.07,97.65,9,19,16.46,few clouds,0,0
467,Magistralnyy,RU,2020-05-09 11:30:58,56.17,107.45,46.94,54,98,4.41,overcast clouds,0,0
468,Mocajuba,BR,2020-05-09 11:30:58,-2.58,-49.51,80.92,86,56,2.55,broken clouds,0,0
469,Bodden Town,KY,2020-05-09 11:30:58,19.28,-81.25,81.0,94,20,3.36,few clouds,0,0
470,Kaohsiung,TW,2020-05-09 11:30:59,22.62,120.31,84.2,79,40,5.82,scattered clouds,0,0
471,Zapolyarnyy,RU,2020-05-09 11:30:59,69.42,30.81,35.6,74,75,6.93,broken clouds,0,0
472,Koungheul,SN,2020-05-09 11:30:59,13.98,-14.8,100.87,12,30,6.08,scattered clouds,0,0
473,Tiksi,RU,2020-05-09 11:25:47,71.69,128.87,21.9,95,97,2.51,overcast clouds,0,0
474,Carolina,PR,2020-05-09 11:30:59,18.38,-65.96,80.6,78,40,8.05,haze,0,0
475,Naze,JP,2020-05-09 11:30:59,28.37,129.48,73.4,88,90,4.7,overcast clouds,0,0
476,Farah,AF,2020-05-09 11:30:59,32.5,62.5,90.39,11,0,16.62,clear sky,0,0
477,West Melbourne,US,2020-05-09 11:31:00,28.07,-80.65,66.2,93,75,4.07,broken clouds,0,0
478,Flin Flon,CA,2020-05-09 11:26:04,54.77,-101.86,28.4,74,40,6.93,scattered clouds,0,0
479,Jurado,CO,2020-05-09 11:31:00,7.11,-77.76,79.23,86,98,3.06,overcast clouds,0,0
480,Thinadhoo,MV,2020-05-09 11:31:00,0.53,72.93,84.85,77,100,14.94,light rain,0,0
481,Connersville,US,2020-05-09 11:29:06,39.64,-85.14,33.01,73,1,4.7,clear sky,0,0
482,Brae,GB,2020-05-09 11:31:01,60.4,-1.35,46.4,63,100,9.17,overcast clouds,0,0
483,Ilhabela,BR,2020-05-09 11:31:01,-23.78,-45.36,68.45,73,12,3.65,few clouds,0,0
484,Oranjemund,NA,2020-05-09 11:31:01,-28.55,16.43,78.15,28,0,8.37,clear sky,0,0
485,Yangambi,CD,2020-05-09 11:31:01,0.81,24.43,76.73,87,94,2.55,overcast clouds,0,0
486,Iskenderun,TR,2020-05-09 11:31:01,36.59,36.17,77.0,44,75,2.24,broken clouds,0,0
487,Sinnamary,GF,2020-05-09 11:31:02,5.38,-52.95,81.05,78,100,9.28,overcast clouds,0,0
488,Hvide Sande,DK,2020-05-09 11:31:02,56.0,8.13,63.0,63,25,6.93,scattered clouds,0,0
489,Mandalgovi,MN,2020-05-09 11:31:02,45.76,106.27,42.17,54,51,21.03,broken clouds,0,0
490,Gewane,ET,2020-05-09 11:31:02,10.17,40.65,98.37,23,0,10.36,clear sky,0,0
491,The Valley,AI,2020-05-09 11:21:41,18.22,-63.06,82.4,69,20,9.17,few clouds,0,0
492,Sola,VU,2020-05-09 11:31:02,-13.88,167.55,80.11,80,0,15.21,clear sky,0,0
493,Ulaanbaatar,MN,2020-05-09 11:31:02,47.91,106.88,42.8,33,75,20.13,broken clouds,0,0
494,Ostrovnoy,RU,2020-05-09 11:31:02,68.05,39.51,37.38,88,33,9.78,scattered clouds,0,0
495,Luganville,VU,2020-05-09 11:31:03,-15.53,167.17,76.91,79,34,6.24,scattered clouds,0,0
496,Berezniki,RU,2020-05-09 11:31:03,59.42,56.81,77.85,29,0,7.34,clear sky,0,0
497,Show Low,US,2020-05-09 11:31:03,34.25,-110.03,57.2,28,1,8.05,clear sky,0,0
498,Odweyne,SO,2020-05-09 11:31:03,9.41,45.06,84.47,44,49,7.72,scattered clouds,0,0
499,Atherton,GB,2020-05-09 11:31:03,53.52,-2.49,75.0,32,52,4.0,broken clouds,0,0
500,La Ronge,CA,2020-05-09 11:31:04,55.1,-105.28,32.0,96,90,8.05,light snow,0,0
501,Yatou,CN,2020-05-09 11:31:04,37.15,122.38,54.37,91,99,14.43,overcast clouds,0,0
502,Meadow Lake,US,2020-05-09 11:31:04,34.8,-106.54,51.01,41,1,10.47,clear sky,0,0
503,Poum,NC,2020-05-09 11:31:04,-20.23,164.02,75.74,76,17,13.4,light rain,0,0
504,Maridi,SS,2020-05-09 11:31:04,4.92,29.47,80.13,81,98,3.53,light rain,0,0
505,York,US,2020-05-09 11:31:05,40.13,-77.0,35.6,47,1,10.29,clear sky,0,0
506,Lyubim,RU,2020-05-09 11:31:05,58.36,40.68,54.91,66,100,3.89,overcast clouds,0,0
507,Santa Cruz De Tenerife,ES,2020-05-09 11:31:05,28.47,-16.25,68.0,93,75,16.11,broken clouds,0,0
508,Isangel,VU,2020-05-09 11:31:05,-19.55,169.27,73.72,80,9,13.2,clear sky,0,0
509,Fernie,CA,2020-05-09 11:31:05,49.5,-115.07,42.8,81,75,4.81,broken clouds,0,0
510,Koutsouras,GR,2020-05-09 11:31:05,35.03,25.95,69.21,45,0,8.63,clear sky,0,0
511,Progreso,MX,2020-05-09 11:27:23,21.28,-89.67,80.01,78,75,6.93,broken clouds,0,0
512,Belogorsk,RU,2020-05-09 11:31:06,50.92,128.46,57.22,55,46,14.36,scattered clouds,0,0
513,Hluti,SZ,2020-05-09 11:31:06,-27.22,31.62,76.37,45,0,4.63,clear sky,0,0
514,Springbok,ZA,2020-05-09 11:31:06,-29.66,17.89,83.59,13,0,15.55,clear sky,0,0
515,Piopio,NZ,2020-05-09 11:31:06,-38.47,175.02,48.99,95,0,1.45,clear sky,0,0
516,Cali,CO,2020-05-09 11:29:08,3.44,-76.52,69.8,94,75,2.24,broken clouds,0,0
517,Sangar,RU,2020-05-09 11:31:06,63.92,127.47,23.94,96,98,11.03,overcast clouds,0,0
518,Okha,RU,2020-05-09 11:31:07,53.57,142.95,32.0,99,100,3.31,light snow,0,0
519,Tombouctou,ML,2020-05-09 11:31:07,20.0,-3.0,106.21,8,13,12.48,few clouds,0,0
520,Kozhva,RU,2020-05-09 11:31:07,65.11,57.05,52.05,57,15,3.09,few clouds,0,0
521,Kargil,IN,2020-05-09 11:31:07,34.57,76.1,48.6,47,72,7.94,broken clouds,0,0
522,Beringovskiy,RU,2020-05-09 11:31:07,63.05,179.32,32.14,98,100,20.85,light snow,0,0
523,Zirl,AT,2020-05-09 11:31:07,47.3,11.27,77.0,41,20,4.7,few clouds,0,0
524,Half Moon Bay,US,2020-05-09 11:31:07,37.46,-122.43,52.0,93,90,4.7,mist,0,0
525,Upata,VE,2020-05-09 11:31:08,8.01,-62.4,78.01,81,72,1.01,broken clouds,0,0
526,Matara,LK,2020-05-09 11:31:08,5.95,80.54,84.31,79,86,7.54,overcast clouds,0,0
527,Sagua La Grande,CU,2020-05-09 11:31:08,22.81,-80.08,71.6,100,75,1.12,broken clouds,0,0
528,Pangnirtung,CA,2020-05-09 11:31:08,66.15,-65.71,30.18,88,100,2.28,overcast clouds,0,0
529,Puerto Baquerizo Moreno,EC,2020-05-09 11:31:08,-0.9,-89.6,75.72,92,25,10.56,scattered clouds,0,0
530,Kharp,RU,2020-05-09 11:31:08,66.8,65.81,36.61,92,40,4.21,scattered clouds,0,0
531,Kaina,NG,2020-05-09 11:31:08,12.64,8.59,95.0,36,0,6.93,clear sky,0,0
532,Liuhe,CN,2020-05-09 11:31:09,42.24,125.72,54.73,81,100,1.88,overcast clouds,0,0
533,Knyaze-Volkonskoye,RU,2020-05-09 11:31:09,48.46,135.46,62.6,33,100,6.71,overcast clouds,0,0
534,Aksu,CN,2020-05-09 11:31:09,41.12,80.26,78.84,19,99,4.63,overcast clouds,0,0
535,Sistranda,NO,2020-05-09 11:31:09,63.73,8.83,39.2,86,75,6.93,light intensity drizzle rain,0,0
536,Evensk,RU,2020-05-09 11:31:09,61.95,159.23,30.99,93,86,13.09,overcast clouds,0,0
537,Dawlatabad,AF,2020-05-09 11:31:09,36.41,64.91,83.77,26,0,11.83,clear sky,0,0
538,Kaihua,CN,2020-05-09 11:31:10,23.37,104.28,74.62,60,7,8.46,clear sky,0,0
539,Grindavik,IS,2020-05-09 11:31:10,63.84,-22.43,39.2,41,0,11.41,clear sky,0,0
540,Tromso,NO,2020-05-09 11:31:10,69.65,18.96,33.8,64,75,19.46,light shower snow,0,0
541,Palmerston North,NZ,2020-05-09 11:31:10,-40.35,175.62,51.01,94,4,1.74,clear sky,0,0
542,Kuusamo,FI,2020-05-09 11:31:10,65.97,29.18,33.8,97,90,5.82,light snow,0,0
543,Chiredzi,ZW,2020-05-09 11:31:10,-21.05,31.67,79.74,41,5,10.67,clear sky,0,0
544,Alugan,PH,2020-05-09 11:31:11,12.22,125.48,81.68,82,31,7.34,scattered clouds,0,0
545,Bafoulabe,ML,2020-05-09 11:31:11,13.81,-10.83,104.52,16,52,10.18,broken clouds,0,0
546,Salalah,OM,2020-05-09 11:31:11,17.02,54.09,89.6,70,20,14.99,few clouds,0,0
547,Burnie,AU,2020-05-09 11:31:11,-41.07,145.92,46.0,80,73,3.0,broken clouds,0,0
548,Xuddur,SO,2020-05-09 11:31:11,4.12,43.89,88.34,50,71,8.43,moderate rain,0,0
549,Cape Canaveral,US,2020-05-09 11:31:11,28.41,-80.6,66.99,93,20,3.36,few clouds,0,0
550,Yinchuan,CN,2020-05-09 11:28:10,38.47,106.27,71.64,16,16,7.14,few clouds,0,0
551,Huanren,CN,2020-05-09 11:31:12,41.26,125.37,52.77,85,100,0.69,overcast clouds,0,0
552,Paita,PE,2020-05-09 11:31:12,-5.09,-81.11,70.41,85,82,10.0,broken clouds,0,0
553,Ketchikan,US,2020-05-09 11:31:12,55.34,-131.65,53.6,81,1,4.94,clear sky,0,0
554,Eyl,SO,2020-05-09 11:31:12,7.98,49.82,89.13,55,0,12.8,clear sky,0,0
555,Ban Tak,TH,2020-05-09 11:31:12,17.04,99.08,98.6,37,20,11.41,few clouds,0,0
