,City,Country,Date,Lat,Lng,Max Temp,Humidity,Cloudiness,Wind Speed,Current Description,Rain Inches (last 3 hrs),Snow Inch as ees (last 3 hrs)
0,Mataura,NZ,2020-05-09 12:05:48,-46.19,168.86,48.54,89,67,3.65,broken clouds,0,0
1,Busselton,AU,2020-05-09 12:06:01,-33.65,115.33,48.99,59,0,3.36,clear sky,0,0
2,Souillac,MU,2020-05-09 12:05:53,-20.52,57.52,80.6,57,20,10.29,few clouds,0,0
3,Alice Springs,AU,2020-05-09 12:12:47,-23.7,133.88,62.6,36,46,8.05,scattered clouds,0,0
4,Marsabit,KE,2020-05-09 12:12:47,2.33,37.99,77.88,58,17,15.52,few clouds,0,0
5,Esperance,AU,2020-05-09 12:06:21,-33.87,121.9,51.8,87,50,4.7,scattered clouds,0,0
6,Coihaique,CL,2020-05-09 12:12:48,-45.58,-72.07,46.4,87,90,2.24,light rain,0,0
7,Bluff,NZ,2020-05-09 12:05:46,-46.6,168.33,54.03,82,13,13.18,few clouds,0,0
8,Butaritari,KI,2020-05-09 12:05:51,3.07,172.79,83.14,76,47,7.49,scattered clouds,0,0
9,Hithadhoo,MV,2020-05-09 12:06:04,-0.6,73.08,84.54,79,100,14.0,overcast clouds,0,0
10,Kavieng,PG,2020-05-09 12:06:18,-2.57,150.8,83.34,79,2,8.86,clear sky,0,0
11,Punta Arenas,CL,2020-05-09 12:05:43,-53.15,-70.92,44.6,93,90,4.7,overcast clouds,0,0
12,Bredasdorp,ZA,2020-05-09 12:05:51,-34.53,20.04,69.8,26,38,10.29,scattered clouds,0,0
13,Dunedin,NZ,2020-05-09 12:12:49,-45.87,170.5,50.0,95,27,1.01,scattered clouds,0,0
14,Hilo,US,2020-05-09 12:05:54,19.73,-155.09,69.8,83,90,4.7,light rain,0,0
15,Lebu,CL,2020-05-09 12:06:41,-37.62,-73.65,55.04,92,6,8.99,clear sky,0,0
16,Labuhan,ID,2020-05-09 12:06:09,-6.88,112.21,82.36,80,100,6.78,moderate rain,0,0
17,Cockburn Town,TC,2020-05-09 12:12:06,21.46,-71.14,81.09,81,75,20.51,broken clouds,0,0
18,Henties Bay,NA,2020-05-09 12:08:57,-22.12,14.28,82.0,28,0,8.01,clear sky,0,0
19,Tiksi,RU,2020-05-09 12:05:44,71.69,128.87,20.16,96,95,3.04,overcast clouds,0,0
20,Qaanaaq,GL,2020-05-09 12:06:03,77.48,-69.36,8.53,80,0,1.7,clear sky,0,0
21,Wexford,IE,2020-05-09 12:10:32,52.33,-6.46,69.01,72,40,4.7,scattered clouds,0,0
22,Laguna,US,2020-05-09 12:06:11,38.42,-121.42,63.0,59,1,3.36,clear sky,0,0
23,Ponta Do Sol,PT,2020-05-09 12:06:10,32.67,-17.1,71.6,60,40,8.05,scattered clouds,0,0
24,Rikitea,PF,2020-05-09 12:05:53,-23.12,-134.97,74.82,73,38,4.45,scattered clouds,0,0
25,Portland,US,2020-05-09 12:08:41,45.52,-122.68,64.99,42,1,6.93,clear sky,0,0
26,Longyearbyen,SJ,2020-05-09 12:05:55,78.22,15.64,23.0,57,40,13.87,scattered clouds,0,0
27,Albany,US,2020-05-09 12:05:44,42.6,-73.97,33.01,56,51,18.48,broken clouds,0,0
28,Khoy,IR,2020-05-09 12:09:33,38.55,44.95,75.11,29,99,15.68,overcast clouds,0,0
29,Bathsheba,BB,2020-05-09 12:06:12,13.22,-59.52,82.4,69,20,21.92,few clouds,0,0
30,Kodiak,US,2020-05-09 12:06:02,57.79,-152.41,44.6,87,90,14.99,light rain,0,0
31,Cape Town,ZA,2020-05-09 12:05:45,-33.93,18.42,78.01,64,0,6.93,clear sky,0,0
32,Saskylakh,RU,2020-05-09 12:05:55,71.92,114.08,18.55,94,49,18.07,scattered clouds,0,0
33,Yong Peng,MY,2020-05-09 12:12:51,2.01,103.07,80.91,81,100,2.82,overcast clouds,0,0
34,Ayorou,NE,2020-05-09 12:12:51,14.73,0.92,107.08,10,7,2.95,clear sky,0,0
35,Atuona,PF,2020-05-09 12:05:45,-9.8,-139.03,81.01,78,77,20.8,light rain,0,0
36,Muyezerskiy,RU,2020-05-09 12:12:52,63.93,31.65,39.49,92,100,9.13,overcast clouds,0,0
37,Qasigiannguit,GL,2020-05-09 12:12:52,68.82,-51.19,33.8,69,75,3.36,broken clouds,0,0
38,Saint George,US,2020-05-09 12:05:58,37.1,-113.58,60.8,25,1,3.36,clear sky,0,0
39,Puerto Ayora,EC,2020-05-09 12:06:01,-0.74,-90.35,75.99,95,31,1.99,scattered clouds,0,0
40,Ormara,PK,2020-05-09 12:12:52,25.21,64.64,84.96,76,0,18.01,clear sky,0,0
41,Bengkulu,ID,2020-05-09 12:06:39,-3.8,102.27,81.12,82,100,0.92,light rain,0,0
42,San Andres,CO,2020-05-09 12:12:53,12.58,-81.7,82.4,88,75,9.17,broken clouds,0,0
43,Simojovel,MX,2020-05-09 12:12:53,17.14,-92.71,70.29,78,86,3.24,overcast clouds,0,0
44,Port Blair,IN,2020-05-09 12:12:53,11.67,92.75,83.17,82,95,11.12,moderate rain,0,0
45,Mantua,IT,2020-05-09 12:12:53,45.17,10.78,80.01,32,2,3.0,clear sky,0,0
46,Mar Del Plata,AR,2020-05-09 12:05:44,-38.0,-57.56,57.0,87,100,10.29,overcast clouds,0,0
47,Barrow,US,2020-05-09 12:06:21,71.29,-156.79,17.6,92,75,9.17,mist,0,0
48,Natal,BR,2020-05-09 12:12:53,-5.79,-35.21,80.6,78,75,8.05,broken clouds,0,0
49,Cabo San Lucas,MX,2020-05-09 12:04:34,22.89,-109.91,66.0,55,0,10.02,clear sky,0,0
50,Hobart,AU,2020-05-09 12:05:43,-42.88,147.33,44.6,81,20,4.7,few clouds,0,0
51,Altay,CN,2020-05-09 12:12:04,47.87,88.12,67.53,23,0,7.02,clear sky,0,0
52,Shashi,CN,2020-05-09 12:12:54,30.31,112.24,64.99,77,99,15.68,overcast clouds,0,0
53,Ushuaia,AR,2020-05-09 12:05:52,-54.8,-68.3,42.8,87,75,5.82,shower rain,0,0
54,Diffa,NE,2020-05-09 12:12:54,13.32,12.61,108.3,10,9,13.78,clear sky,0,0
55,Ribeira Grande,PT,2020-05-09 12:05:53,38.52,-28.7,64.4,88,40,23.04,scattered clouds,0,0
56,New Norfolk,AU,2020-05-09 12:05:56,-42.78,147.06,43.0,79,63,1.01,broken clouds,0,0
57,Nanortalik,GL,2020-05-09 12:05:57,60.14,-45.24,39.97,68,0,5.75,clear sky,0,0
58,Manjacaze,MZ,2020-05-09 12:09:06,-24.71,33.88,77.9,49,44,9.71,scattered clouds,0,0
59,Guerrero Negro,MX,2020-05-09 12:07:05,27.98,-114.06,63.52,83,0,5.7,clear sky,0,0
60,Avarua,CK,2020-05-09 12:05:49,-21.21,-159.78,78.8,83,13,4.7,few clouds,0,0
61,Hay River,CA,2020-05-09 12:12:55,60.82,-115.8,28.4,86,75,8.05,broken clouds,0,0
62,Vila,PT,2020-05-09 12:12:55,42.03,-8.16,55.0,84,100,14.0,overcast clouds,0,0
63,Yellowknife,CA,2020-05-09 12:05:50,62.46,-114.35,24.8,79,75,10.29,broken clouds,0,0
64,Nantucket,US,2020-05-09 12:12:56,41.28,-70.1,41.0,86,90,20.8,overcast clouds,0,0
65,Mathathane,BW,2020-05-09 12:12:56,-22.27,28.75,79.03,36,0,10.58,clear sky,0,0
66,Khatanga,RU,2020-05-09 12:06:07,71.97,102.5,33.01,96,100,18.34,overcast clouds,0,0
67,Guanica,PR,2020-05-09 12:12:56,17.97,-66.91,82.99,70,99,5.01,overcast clouds,0,0
68,Sao Joao Da Barra,BR,2020-05-09 12:06:45,-21.64,-41.05,68.0,88,40,9.17,scattered clouds,0,0
69,Morondava,MG,2020-05-09 12:05:48,-20.28,44.28,81.39,54,0,9.31,clear sky,0,0
70,Saint-Georges,GD,2020-05-09 12:12:57,12.06,-61.75,82.4,74,40,13.87,scattered clouds,0,0
71,Leningradskiy,RU,2020-05-09 12:06:00,69.38,178.42,23.04,94,98,7.47,overcast clouds,0,0
72,Arraial Do Cabo,BR,2020-05-09 12:05:51,-22.97,-42.03,69.8,77,0,1.12,clear sky,0,0
73,Namibe,AO,2020-05-09 12:06:51,-15.2,12.15,98.6,37,0,18.34,clear sky,0,0
74,Ponnani,IN,2020-05-09 12:12:57,10.77,75.93,89.6,62,75,10.29,broken clouds,0,0
75,Kutum,SD,2020-05-09 12:06:54,14.2,24.67,94.77,9,8,10.36,clear sky,0,0
76,Port Alfred,ZA,2020-05-09 12:05:55,-33.59,26.89,66.99,92,0,7.56,clear sky,0,0
77,Hermanus,ZA,2020-05-09 12:05:58,-34.42,19.23,81.0,46,1,1.01,clear sky,0,0
78,Bereda,ES,2020-05-09 12:12:58,43.27,-7.54,70.0,74,99,5.99,overcast clouds,0,0
79,Asau,RO,2020-05-09 12:12:58,46.43,26.4,60.01,74,98,2.68,light rain,0,0
80,Dawei,MM,2020-05-09 12:06:34,14.08,98.2,84.99,76,80,3.4,broken clouds,0,0
81,Algeciras,ES,2020-05-09 12:12:58,36.13,-5.45,71.6,49,91,13.87,overcast clouds,0,0
82,Lambari,BR,2020-05-09 12:12:58,-21.98,-45.35,59.58,71,0,3.98,clear sky,0,0
83,Sawakin,SD,2020-05-09 12:10:06,19.11,37.33,88.32,66,75,12.48,broken clouds,0,0
84,Jamestown,US,2020-05-09 12:03:42,42.1,-79.24,24.8,73,75,10.29,broken clouds,0,0
85,Navahrudak,BY,2020-05-09 12:12:59,53.6,25.83,60.4,51,13,9.17,few clouds,0,0
86,Okha,RU,2020-05-09 12:12:59,53.57,142.95,32.0,99,100,3.31,light snow,0,0
87,La Esperanza,GT,2020-05-09 12:12:59,14.87,-91.57,50.0,99,95,4.5,light rain,0,0
88,Maues,BR,2020-05-09 12:12:59,-3.38,-57.72,77.36,93,85,2.15,overcast clouds,0,0
89,Davidson,US,2020-05-09 12:13:00,36.15,-86.78,37.0,59,1,1.81,clear sky,0,0
90,Santa Cruz,BO,2020-05-09 12:07:10,-17.8,-63.17,59.0,87,0,6.93,clear sky,0,0
91,Ostrovnoy,RU,2020-05-09 12:06:35,68.05,39.51,37.38,88,33,9.78,scattered clouds,0,0
92,Provideniya,RU,2020-05-09 12:05:53,64.38,-173.3,33.21,93,45,14.29,scattered clouds,0,0
93,Geraldton,AU,2020-05-09 12:06:00,-28.77,114.6,64.4,63,100,10.29,overcast clouds,0,0
94,Talnakh,RU,2020-05-09 12:06:28,69.49,88.4,32.0,98,75,13.42,broken clouds,0,0
95,Yongan,CN,2020-05-09 12:13:00,39.7,113.69,60.96,28,100,5.7,overcast clouds,0,0
96,Los Llanos De Aridane,ES,2020-05-09 12:13:01,28.66,-17.92,73.4,69,75,11.41,broken clouds,0,0
97,Hirado,JP,2020-05-09 12:13:01,33.36,129.55,69.01,94,75,11.41,light intensity shower rain,0,0
98,Bauchi,NG,2020-05-09 12:13:01,10.5,10.0,98.49,27,19,5.48,few clouds,0,0
99,Gat,IL,2020-05-09 12:06:03,31.61,34.76,79.0,55,33,5.99,scattered clouds,0,0
100,Juneau,US,2020-05-09 12:13:01,58.3,-134.42,46.99,75,40,5.53,scattered clouds,0,0
101,Turukhansk,RU,2020-05-09 12:13:02,65.82,87.98,38.62,94,100,14.41,overcast clouds,0,0
102,Nikolskoye,RU,2020-05-09 12:05:46,59.7,30.79,57.2,35,75,15.66,broken clouds,0,0
103,Richards Bay,ZA,2020-05-09 12:06:57,-28.78,32.04,76.62,65,20,5.12,few clouds,0,0
104,Yeppoon,AU,2020-05-09 12:09:20,-23.13,150.73,64.4,88,2,1.12,light rain,0,0
105,Faanui,PF,2020-05-09 12:06:26,-16.48,-151.75,81.86,80,16,13.13,few clouds,0,0
106,Saint-Philippe,RE,2020-05-09 12:05:54,-21.36,55.77,80.6,65,40,17.22,scattered clouds,0,0
107,Victoria,HK,2020-05-09 12:05:48,22.29,114.16,84.0,74,61,10.0,broken clouds,0,0
108,Boralday,KZ,2020-05-09 12:13:03,43.36,76.86,75.2,38,75,4.47,broken clouds,0,0
109,Vysha,RU,2020-05-09 12:13:03,53.85,42.38,58.41,75,100,4.56,overcast clouds,0,0
110,Carnarvon,AU,2020-05-09 12:05:55,-24.87,113.63,75.63,48,99,16.8,overcast clouds,0,0
111,Port Keats,AU,2020-05-09 12:13:03,-14.25,129.55,77.74,60,69,4.61,broken clouds,0,0
112,Fort Nelson,CA,2020-05-09 12:13:03,58.81,-122.7,39.74,70,87,4.27,overcast clouds,0,0
113,Twentynine Palms,US,2020-05-09 12:13:03,34.14,-116.05,68.0,22,1,9.17,clear sky,0,0
114,Dingle,PH,2020-05-09 12:06:15,11.0,122.67,81.45,68,43,5.32,scattered clouds,0,0
115,Luderitz,NA,2020-05-09 12:13:04,-26.65,15.16,71.6,49,0,12.75,clear sky,0,0
116,Thessalon,CA,2020-05-09 12:13:04,46.25,-83.57,30.2,80,90,5.82,overcast clouds,0,0
117,Inirida,CO,2020-05-09 12:13:04,3.87,-67.92,74.5,96,96,1.19,overcast clouds,0,0
118,Faya,SA,2020-05-09 12:06:29,18.39,42.45,80.6,28,20,10.29,few clouds,0,0
119,Ancud,CL,2020-05-09 12:06:49,-41.87,-73.82,52.0,100,20,10.29,few clouds,0,0
120,Te Anau,NZ,2020-05-09 12:13:04,-45.42,167.72,50.02,87,100,2.57,overcast clouds,0,0
121,Husavik,IS,2020-05-09 12:06:47,66.04,-17.34,35.6,43,40,6.93,scattered clouds,0,0
122,Baker City,US,2020-05-09 12:13:05,44.77,-117.83,35.6,80,1,3.36,clear sky,0,0
123,Tuatapere,NZ,2020-05-09 12:06:45,-46.13,167.68,52.3,83,24,6.8,few clouds,0,0
124,Tilichiki,RU,2020-05-09 12:06:38,60.47,166.1,29.88,100,100,15.19,light snow,0,0
125,Belmonte,BR,2020-05-09 12:13:05,-15.86,-38.88,69.8,88,75,6.93,broken clouds,0,0
126,Dois Corregos,BR,2020-05-09 12:13:05,-22.37,-48.38,64.0,70,26,7.0,scattered clouds,0,0
127,Raybag,IN,2020-05-09 12:13:05,16.48,74.78,97.32,23,59,2.04,broken clouds,0,0
128,Dajal,PK,2020-05-09 12:13:05,29.56,70.38,111.47,7,0,13.4,clear sky,0,0
129,Santa Rita,BR,2020-05-09 12:13:06,-7.11,-34.98,80.6,83,40,9.17,scattered clouds,0,0
130,Tuktoyaktuk,CA,2020-05-09 12:05:45,69.45,-133.04,22.77,96,0,15.5,clear sky,0,0
131,Lagoa,PT,2020-05-09 12:06:27,39.05,-27.98,62.76,92,80,21.77,broken clouds,0,0
132,San Javier,ES,2020-05-09 12:13:06,37.81,-0.84,73.99,77,75,6.93,broken clouds,0,0
133,Castro,BR,2020-05-09 12:02:34,-24.79,-50.01,53.65,80,69,6.62,broken clouds,0,0
134,Nishihara,JP,2020-05-09 12:13:06,26.18,127.76,77.0,88,75,6.93,broken clouds,0,0
135,Iquitos,PE,2020-05-09 12:13:07,-3.75,-73.25,71.6,100,90,1.66,overcast clouds,0,0
136,Beloha,MG,2020-05-09 12:07:03,-25.17,45.05,76.28,54,18,16.15,few clouds,0,0
137,Chuy,UY,2020-05-09 12:05:47,-33.7,-53.46,53.44,73,26,8.08,scattered clouds,0,0
138,Turbiv,UA,2020-05-09 12:13:07,49.35,28.72,62.6,33,65,11.18,broken clouds,0,0
139,Merauke,ID,2020-05-09 12:06:27,-8.47,140.33,80.22,81,11,16.42,few clouds,0,0
140,Necochea,AR,2020-05-09 12:05:47,-38.55,-58.74,55.0,74,82,10.0,broken clouds,0,0
141,Alihe,CN,2020-05-09 12:13:07,50.57,123.72,52.5,61,92,8.16,overcast clouds,0,0
142,Vaini,TO,2020-05-09 12:05:46,-21.2,-175.2,78.8,94,75,8.05,broken clouds,0,0
143,Athabasca,CA,2020-05-09 12:13:08,54.72,-113.29,35.85,89,45,6.44,scattered clouds,0,0
144,Paamiut,GL,2020-05-09 12:13:08,61.99,-49.67,38.25,77,50,7.45,scattered clouds,0,0
145,Bembereke,BJ,2020-05-09 12:13:08,10.23,2.66,105.4,28,46,1.43,scattered clouds,0,0
146,Grindavik,IS,2020-05-09 12:13:08,63.84,-22.43,41.0,30,0,9.17,clear sky,0,0
147,Paso De Carrasco,UY,2020-05-09 12:13:08,-34.86,-56.05,51.01,81,100,9.17,overcast clouds,0,0
148,Yanam,IN,2020-05-09 12:06:18,16.73,82.22,90.27,56,3,9.71,clear sky,0,0
149,Dikson,RU,2020-05-09 12:06:07,73.51,80.55,31.73,96,99,18.25,overcast clouds,0,0
150,Upernavik,GL,2020-05-09 12:06:15,72.79,-56.15,20.82,95,100,11.79,overcast clouds,0,0
151,Salalah,OM,2020-05-09 12:06:43,17.02,54.09,89.6,70,20,14.99,few clouds,0,0
152,Novikovo,RU,2020-05-09 12:13:09,51.15,37.89,57.63,58,80,5.75,broken clouds,0,0
153,Ilulissat,GL,2020-05-09 12:06:24,69.22,-51.1,30.2,80,75,3.36,broken clouds,0,0
154,Sola,VU,2020-05-09 12:06:56,-13.88,167.55,80.11,80,0,15.21,clear sky,0,0
155,Chokurdakh,RU,2020-05-09 12:05:59,70.63,147.92,28.36,98,98,5.26,overcast clouds,0,0
156,Santa Lucia,ES,2020-05-09 12:13:09,27.91,-15.54,77.0,61,20,27.51,few clouds,0,0
157,Fortuna,US,2020-05-09 12:06:19,40.6,-124.16,51.01,100,90,3.15,overcast clouds,0,0
158,Kincardine,GB,2020-05-09 12:13:10,56.07,-3.72,66.99,63,20,6.93,few clouds,0,0
159,Saiha,IN,2020-05-09 12:13:10,22.48,92.97,79.65,39,0,1.54,clear sky,0,0
160,Sao Filipe,CV,2020-05-09 12:05:57,14.9,-24.5,74.55,73,61,12.86,broken clouds,0,0
161,Aklavik,CA,2020-05-09 12:06:03,68.22,-135.01,32.0,97,20,9.17,few clouds,0,0
162,Holguin,CU,2020-05-09 12:13:10,20.89,-76.26,77.0,94,75,5.82,fog,0,0
163,Urubamba,PE,2020-05-09 12:13:10,-13.3,-72.12,53.11,61,61,1.39,broken clouds,0,0
164,Tallahassee,US,2020-05-09 12:13:11,30.44,-84.28,64.4,52,75,11.41,broken clouds,0,0
165,Tabuk,PH,2020-05-09 12:06:22,17.42,121.44,79.34,76,44,5.39,scattered clouds,0,0
166,Nokaneng,BW,2020-05-09 12:13:11,-19.67,22.27,84.02,19,0,8.37,clear sky,0,0
167,Alofi,NU,2020-05-09 12:12:08,-19.06,-169.92,75.2,100,67,3.36,broken clouds,0,0
168,Constitucion,CL,2020-05-09 12:06:29,-35.33,-72.42,55.24,91,62,0.87,broken clouds,0,0
169,Petropavlovsk-Kamchatskiy,RU,2020-05-09 12:06:08,53.05,158.65,42.8,52,37,8.95,scattered clouds,0,0
170,Muros,ES,2020-05-09 12:07:11,42.78,-9.06,64.0,82,100,18.99,overcast clouds,0,0
171,Georgetown,MY,2020-05-09 12:05:47,5.41,100.34,86.0,84,40,6.93,thunderstorm with light rain,0,0
172,Dicabisagan,PH,2020-05-09 12:06:51,17.08,122.42,81.23,78,38,2.35,scattered clouds,0,0
173,Corbelia,BR,2020-05-09 12:13:12,-24.8,-53.31,55.65,68,0,10.45,clear sky,0,0
174,Bethel,US,2020-05-09 12:05:09,41.37,-73.41,34.0,83,1,17.22,light rain,0,0
175,Cherskiy,RU,2020-05-09 12:06:17,68.75,161.3,32.92,87,0,7.49,clear sky,0,0
176,Sorland,NO,2020-05-09 12:06:21,67.67,12.69,37.4,55,40,8.05,shower rain,0,0
177,Cartagena,CO,2020-05-09 12:08:49,10.4,-75.51,82.4,88,40,4.7,haze,0,0
178,Sokolka,PL,2020-05-09 12:13:12,53.41,23.5,66.99,48,75,13.42,broken clouds,0,0
179,Mahibadhoo,MV,2020-05-09 12:05:59,3.78,72.97,85.15,77,98,12.68,overcast clouds,0,0
180,Wanning,CN,2020-05-09 12:13:13,18.8,110.4,82.08,87,40,11.81,scattered clouds,0,0
181,Vitim,RU,2020-05-09 12:06:26,59.45,112.56,45.48,52,100,3.13,overcast clouds,0,0
182,Narsaq,GL,2020-05-09 12:06:36,60.92,-46.05,51.8,14,20,21.92,few clouds,0,0
183,Mazamari,PE,2020-05-09 12:13:13,-11.33,-74.53,66.51,78,57,0.31,broken clouds,0,0
184,Pevek,RU,2020-05-09 12:06:25,69.7,170.31,31.51,88,29,3.85,scattered clouds,0,0
185,Gallup,US,2020-05-09 12:06:23,35.53,-108.74,32.0,37,1,3.36,clear sky,0,0
186,Norman Wells,CA,2020-05-09 12:06:05,65.28,-126.83,26.6,86,5,8.05,clear sky,0,0
187,Benguela,AO,2020-05-09 12:13:14,-12.58,13.41,86.0,70,0,9.17,clear sky,0,0
188,Caravelas,BR,2020-05-09 12:06:26,-17.71,-39.25,75.69,66,99,12.64,light rain,0,0
189,Mogadishu,SO,2020-05-09 12:13:14,2.04,45.34,85.69,71,42,12.46,light rain,0,0
190,Severo-Kurilsk,RU,2020-05-09 12:05:46,50.68,156.12,33.71,90,79,17.6,broken clouds,0,0
191,Katsuura,JP,2020-05-09 12:09:05,35.13,140.3,66.0,74,100,5.99,overcast clouds,0,0
192,Lubumbashi,CD,2020-05-09 12:10:16,-11.66,27.48,76.01,51,55,7.34,broken clouds,0,0
193,Carmelo,UY,2020-05-09 12:13:15,-33.99,-58.29,53.6,87,89,3.36,overcast clouds,0,0
194,Devrek,TR,2020-05-09 12:13:15,41.22,31.96,64.9,40,2,8.59,clear sky,0,0
195,Huicheng,CN,2020-05-09 12:13:15,23.04,116.29,86.0,74,20,11.18,few clouds,0,0
196,Bull Savanna,JM,2020-05-09 12:13:15,17.89,-77.59,77.32,84,100,11.74,overcast clouds,0,0
197,Itacarambi,BR,2020-05-09 12:13:15,-15.1,-44.09,67.64,77,100,7.31,overcast clouds,0,0
198,Khor,RU,2020-05-09 12:13:15,47.89,134.95,57.25,38,100,6.17,overcast clouds,0,0
199,Monmouth,US,2020-05-09 12:11:20,40.3,-74.17,37.0,51,15,5.99,few clouds,0,0
200,Tura,IN,2020-05-09 12:13:15,25.52,90.22,83.17,38,21,3.69,few clouds,0,0
201,Ponte De Sor,PT,2020-05-09 12:13:16,39.25,-8.01,66.0,52,100,7.0,light rain,0,0
202,Tasiilaq,GL,2020-05-09 12:05:55,65.61,-37.64,26.6,92,40,1.12,fog,0,0
203,Mao,ES,2020-05-09 12:09:04,39.89,4.27,66.2,88,75,6.93,broken clouds,0,0
204,Nampula,MZ,2020-05-09 12:13:16,-15.12,39.27,78.8,54,75,11.41,broken clouds,0,0
205,Mashhad,IR,2020-05-09 12:13:16,36.3,59.61,80.6,24,20,6.93,few clouds,0,0
206,Baghdad,IQ,2020-05-09 12:13:11,33.34,44.4,102.2,15,5,31.09,clear sky,0,0
207,Torbay,CA,2020-05-09 12:01:07,47.67,-52.73,45.0,70,75,24.16,broken clouds,0,0
208,Buala,SB,2020-05-09 12:06:57,-8.14,159.59,81.82,83,1,5.23,light rain,0,0
209,Makakilo City,US,2020-05-09 12:06:48,21.35,-158.09,73.4,88,1,5.82,clear sky,0,0
210,Angahuan,MX,2020-05-09 12:13:17,19.55,-102.18,64.4,63,5,2.3,smoke,0,0
211,Kapaa,US,2020-05-09 12:05:56,22.08,-159.32,68.0,82,20,6.93,few clouds,0,0
212,San Cristobal,VE,2020-05-09 12:06:29,7.77,-72.22,70.79,75,85,6.29,overcast clouds,0,0
213,Dalby,AU,2020-05-09 12:13:17,-27.18,151.27,69.01,53,92,8.99,light rain,0,0
214,Kaitangata,NZ,2020-05-09 12:06:10,-46.28,169.85,50.36,85,59,3.83,broken clouds,0,0
215,Olinda,BR,2020-05-09 12:13:18,-8.01,-34.86,84.2,74,40,13.87,scattered clouds,0,0
216,Prince Rupert,CA,2020-05-09 12:13:18,54.32,-130.32,50.0,64,75,3.78,broken clouds,0,0
217,Krasnyy Chikoy,RU,2020-05-09 12:13:18,50.36,108.75,40.01,65,78,5.95,broken clouds,0,0
218,Kruisfontein,ZA,2020-05-09 12:06:11,-34.0,24.73,73.85,55,0,9.01,clear sky,0,0
219,Shanghai,CN,2020-05-09 12:11:27,31.22,121.46,69.01,72,20,8.95,few clouds,0,0
220,Sitka,US,2020-05-09 12:06:32,57.05,-135.33,53.6,54,40,4.7,scattered clouds,0,0
221,Sorong,ID,2020-05-09 12:13:18,-0.88,131.25,82.17,86,100,12.82,light rain,0,0
222,Svalyava,UA,2020-05-09 12:13:18,48.55,23.0,72.0,42,67,6.71,light rain,0,0
223,Thinadhoo,MV,2020-05-09 12:12:11,0.53,72.93,84.85,77,100,14.94,light rain,0,0
224,Kupang,ID,2020-05-09 12:13:19,-10.17,123.58,78.8,65,20,10.29,few clouds,0,0
225,Nhulunbuy,AU,2020-05-09 12:09:44,-12.23,136.77,80.6,74,40,8.05,scattered clouds,0,0
226,Gravdal,NO,2020-05-09 12:13:19,68.12,13.5,37.4,55,40,8.05,shower rain,0,0
227,Ko Samui,TH,2020-05-09 12:06:00,9.54,99.94,87.8,74,20,5.82,few clouds,0,0
228,Dongsheng,CN,2020-05-09 12:13:19,39.82,109.98,58.98,30,45,14.9,scattered clouds,0,0
229,La Fria,VE,2020-05-09 12:13:19,8.22,-72.24,80.15,61,83,1.48,broken clouds,0,0
230,Kahului,US,2020-05-09 12:05:59,20.89,-156.47,71.6,83,90,8.05,overcast clouds,0,0
231,Lompoc,US,2020-05-09 12:06:32,34.64,-120.46,55.0,93,90,8.05,mist,0,0
232,Banikoara,BJ,2020-05-09 12:13:20,11.3,2.44,106.97,23,28,3.31,scattered clouds,0,0
233,Port Elizabeth,ZA,2020-05-09 12:04:55,-33.92,25.57,72.77,58,14,8.93,few clouds,0,0
234,Mae Sot,TH,2020-05-09 12:13:20,16.72,98.57,98.6,37,20,11.41,few clouds,0,0
235,Coquimbo,CL,2020-05-09 12:06:26,-29.95,-71.34,55.4,82,37,6.93,scattered clouds,0,0
236,Oksfjord,NO,2020-05-09 12:13:20,70.24,22.35,37.4,47,98,9.17,light snow,0,0
237,Kurilsk,RU,2020-05-09 12:12:06,45.23,147.88,39.45,85,78,7.38,broken clouds,0,0
238,Kinablangan,PH,2020-05-09 12:13:21,7.69,126.55,81.93,83,88,6.49,light rain,0,0
239,Ibotirama,BR,2020-05-09 12:13:21,-12.19,-43.22,73.54,78,89,4.97,overcast clouds,0,0
240,Pimentel,PE,2020-05-09 12:13:21,-6.84,-79.93,67.26,89,83,8.9,broken clouds,0,0
241,Jinchang,CN,2020-05-09 12:13:21,38.5,102.17,63.09,19,92,7.47,overcast clouds,0,0
242,Corpus Christi,US,2020-05-09 12:10:40,27.8,-97.4,64.4,93,90,18.34,heavy intensity rain,0,0
243,Acajutla,SV,2020-05-09 12:13:21,13.59,-89.83,68.0,100,100,4.03,overcast clouds,0,0
244,Shingu,JP,2020-05-09 12:13:22,33.73,135.98,60.62,91,92,2.98,overcast clouds,0,0
245,Chapais,CA,2020-05-09 12:08:52,49.78,-74.85,23.0,85,90,10.29,light snow,0,0
246,Ajdabiya,LY,2020-05-09 12:13:22,30.76,20.23,80.47,16,10,0.72,clear sky,0,0
247,Praia,CV,2020-05-09 12:10:03,14.92,-23.51,78.8,57,75,21.92,broken clouds,0,0
248,Novyy Urgal,RU,2020-05-09 12:13:22,51.07,132.56,44.8,80,86,3.11,overcast clouds,0,0
249,Beringovskiy,RU,2020-05-09 12:06:26,63.05,179.32,32.14,98,100,20.85,light snow,0,0
250,Ovalle,CL,2020-05-09 12:13:23,-30.6,-71.2,56.68,72,0,1.7,clear sky,0,0
251,Namatanai,PG,2020-05-09 12:09:09,-3.67,152.43,81.64,81,16,7.23,few clouds,0,0
252,Lhokseumawe,ID,2020-05-09 12:13:23,5.18,97.15,79.54,87,98,10.85,light rain,0,0
253,Riverton,US,2020-05-09 12:09:40,40.52,-111.94,48.2,52,1,8.05,clear sky,0,0
254,Lata,PT,2020-05-09 12:06:19,40.16,-8.33,64.99,78,99,5.99,moderate rain,0,0
255,Givors,FR,2020-05-09 12:13:23,45.58,4.77,77.0,27,22,17.22,few clouds,0,0
256,Greystones,IE,2020-05-09 12:11:25,53.14,-6.06,64.99,58,100,1.01,overcast clouds,0,0
257,Tuy Hoa,VN,2020-05-09 12:13:24,13.08,109.3,80.44,86,56,7.45,broken clouds,0,0
258,Merida,MX,2020-05-09 12:13:24,20.97,-89.62,80.01,78,75,6.93,broken clouds,0,0
259,Malvern,US,2020-05-09 12:13:24,34.36,-92.81,46.4,75,1,5.12,clear sky,0,0
260,Riyadh,SA,2020-05-09 12:12:28,24.69,46.72,100.4,14,75,9.17,broken clouds,0,0
261,Kemijarvi,FI,2020-05-09 12:13:24,66.71,27.43,41.29,67,97,6.69,overcast clouds,0,0
262,Okato,NZ,2020-05-09 12:13:24,-39.2,173.88,48.99,86,1,5.99,clear sky,0,0
263,Komsomolskiy,UZ,2020-05-09 12:06:44,40.43,71.72,77.0,31,67,9.17,light rain,0,0
264,Solginskiy,RU,2020-05-09 12:13:25,61.05,41.34,58.69,46,78,3.33,broken clouds,0,0
265,East London,ZA,2020-05-09 12:06:01,-33.02,27.91,71.6,78,0,5.82,clear sky,0,0
266,Ishigaki,JP,2020-05-09 12:06:41,24.34,124.16,78.8,94,20,6.93,few clouds,0,0
267,Shahapur,IN,2020-05-09 12:13:25,19.45,73.33,89.6,66,0,10.29,clear sky,0,0
268,Iqaluit,CA,2020-05-09 12:05:51,63.75,-68.51,32.0,95,75,2.24,broken clouds,0,0
269,Kenora,CA,2020-05-09 12:12:44,49.82,-94.43,26.6,73,20,4.7,few clouds,0,0
270,Nanakuli,US,2020-05-09 12:13:25,21.39,-158.15,73.4,88,1,5.82,clear sky,0,0
271,Saint Anthony,US,2020-05-09 12:08:55,45.02,-93.22,36.0,74,90,1.5,overcast clouds,0,0
272,Miri,MY,2020-05-09 12:06:31,4.41,114.01,82.4,94,75,4.68,broken clouds,0,0
273,Carberry,CA,2020-05-09 12:13:26,49.87,-99.36,30.2,92,90,13.87,light snow,0,0
274,Saint-Pierre,RE,2020-05-09 12:13:26,-21.34,55.48,78.8,65,20,17.22,few clouds,0,0
275,Balkhash,KZ,2020-05-09 12:13:26,46.84,74.98,77.0,16,100,4.47,overcast clouds,0,0
276,Mandalgovi,MN,2020-05-09 12:13:26,45.76,106.27,42.17,54,51,21.03,broken clouds,0,0
277,Rio Grande City,US,2020-05-09 12:13:26,26.38,-98.82,66.2,88,90,16.11,overcast clouds,0,0
278,Verkhnyaya Inta,RU,2020-05-09 12:09:55,65.98,60.31,50.29,52,34,1.72,scattered clouds,0,0
279,Ust-Tarka,RU,2020-05-09 12:13:27,55.57,75.7,75.33,25,0,9.4,clear sky,0,0
280,Erdenet,MN,2020-05-09 12:13:27,49.03,104.08,38.89,71,82,1.97,broken clouds,0,0
281,Novobirilyussy,RU,2020-05-09 12:06:59,56.95,90.67,63.7,54,42,5.95,scattered clouds,0,0
282,La Ronge,CA,2020-05-09 12:09:05,55.1,-105.28,32.0,96,90,8.05,light snow,0,0
283,Meulaboh,ID,2020-05-09 12:12:09,4.14,96.13,80.06,85,100,4.38,moderate rain,0,0
284,Arkadak,RU,2020-05-09 12:13:27,51.93,43.5,60.13,65,100,4.61,light rain,0,0
285,Bjelovar,HR,2020-05-09 12:13:28,45.9,16.85,78.01,36,36,12.75,scattered clouds,0,0
286,Teshie,GH,2020-05-09 12:13:28,5.58,-0.11,89.6,62,40,9.17,scattered clouds,0,0
287,Puqi,CN,2020-05-09 12:13:28,29.72,113.88,64.63,81,99,7.61,overcast clouds,0,0
288,Brae,GB,2020-05-09 12:07:11,60.4,-1.35,44.6,56,100,10.29,overcast clouds,0,0
289,Srandakan,ID,2020-05-09 12:13:28,-7.94,110.25,80.4,85,100,5.46,moderate rain,0,0
290,Pacific Grove,US,2020-05-09 12:06:16,36.62,-121.92,51.8,93,90,3.67,mist,0,0
291,Sandnessjoen,NO,2020-05-09 12:13:29,66.02,12.63,41.0,64,40,4.7,scattered clouds,0,0
292,Ushtobe,KZ,2020-05-09 12:06:55,45.25,77.98,80.44,19,100,12.03,overcast clouds,0,0
293,Cupira,BR,2020-05-09 12:13:29,-8.62,-35.95,77.07,70,76,7.85,broken clouds,0,0
294,Tarata,BO,2020-05-09 12:13:29,-17.62,-66.02,51.8,62,0,2.57,clear sky,0,0
295,Sidi Ali,DZ,2020-05-09 12:12:13,36.1,0.42,68.95,74,96,10.16,overcast clouds,0,0
296,Hopelchen,MX,2020-05-09 12:13:29,19.77,-89.85,74.79,91,12,4.56,few clouds,0,0
297,Pangnirtung,CA,2020-05-09 12:06:39,66.15,-65.71,30.18,88,100,2.28,overcast clouds,0,0
298,Igrim,RU,2020-05-09 12:13:30,63.19,64.42,68.13,47,46,4.72,scattered clouds,0,0
299,Half Moon Bay,US,2020-05-09 12:07:11,37.46,-122.43,51.8,87,1,3.36,clear sky,0,0
300,Axim,GH,2020-05-09 12:12:14,4.87,-2.24,86.63,70,57,8.25,broken clouds,0,0
301,Ust-Kuyga,RU,2020-05-09 12:13:30,70.02,135.6,26.94,97,100,1.66,overcast clouds,0,0
302,Skibbereen,IE,2020-05-09 12:13:30,51.55,-9.27,62.6,72,20,10.29,few clouds,0,0
303,Sabang,ID,2020-05-09 12:05:46,5.89,95.32,78.4,90,100,10.94,moderate rain,0,0
304,Horadiz,AZ,2020-05-09 12:13:31,39.45,47.34,71.6,64,75,4.7,broken clouds,0,0
305,Lucapa,AO,2020-05-09 12:13:31,-8.42,20.74,85.89,47,7,6.29,clear sky,0,0
306,Manoel Urbano,BR,2020-05-09 12:13:31,-8.84,-69.26,67.8,75,27,2.26,scattered clouds,0,0
307,Amargosa,BR,2020-05-09 12:13:31,-13.03,-39.6,71.47,78,90,11.41,overcast clouds,0,0
308,Itarema,BR,2020-05-09 12:09:25,-2.92,-39.92,81.63,80,97,8.43,overcast clouds,0,0
309,Zhezkazgan,KZ,2020-05-09 12:13:31,47.8,67.71,64.4,88,90,13.42,shower rain,0,0
310,Vila Velha,BR,2020-05-09 12:03:50,-20.33,-40.29,73.99,88,75,5.82,light rain,0,0
311,Bubaque,GW,2020-05-09 12:13:32,11.28,-15.83,77.92,73,98,12.48,overcast clouds,0,0
312,Ngama,TD,2020-05-09 12:13:32,11.78,17.17,108.79,7,4,10.65,clear sky,0,0
313,Hofn,IS,2020-05-09 12:05:55,64.25,-15.21,34.88,71,50,9.13,scattered clouds,0,0
314,Caraz,PE,2020-05-09 12:13:32,-9.05,-77.81,61.9,53,81,6.2,broken clouds,0,0
315,Palmer,US,2020-05-09 12:06:19,42.16,-72.33,36.0,64,90,14.99,light rain,0,0
316,Coral Terrace,US,2020-05-09 12:13:33,25.75,-80.3,73.99,83,1,0.98,clear sky,0,0
317,Beidao,CN,2020-05-09 12:13:33,34.57,105.89,57.54,37,11,4.68,few clouds,0,0
318,Codrington,AU,2020-05-09 12:13:33,-38.27,141.97,47.64,67,50,18.77,light rain,0,0
319,Kualakapuas,ID,2020-05-09 12:05:50,-3.01,114.39,77.0,100,75,6.93,broken clouds,0,0
320,Puerto Baquerizo Moreno,EC,2020-05-09 12:13:33,-0.9,-89.6,75.72,92,25,10.56,scattered clouds,0,0
321,Ha Tinh,VN,2020-05-09 12:13:34,18.33,105.9,84.96,77,29,5.41,scattered clouds,0,0
322,Norwich,GB,2020-05-09 12:13:34,52.63,1.3,71.01,46,0,6.93,clear sky,0,0
323,Zambezi,ZM,2020-05-09 12:13:34,-13.54,23.1,82.98,33,13,9.15,few clouds,0,0
324,Xining,CN,2020-05-09 12:13:34,36.62,101.77,50.05,49,25,1.99,scattered clouds,0,0
325,Bud,US,2020-05-09 12:13:34,39.45,-86.18,35.01,80,1,3.36,clear sky,0,0
326,Hoyanger,NO,2020-05-09 12:13:35,61.22,6.07,46.99,56,97,9.17,light snow,0,0
327,Luwuk,ID,2020-05-09 12:07:07,-0.95,122.79,80.6,78,100,4.12,moderate rain,0,0
328,Taloqan,AF,2020-05-09 12:13:35,36.74,69.53,80.74,32,2,8.34,clear sky,0,0
329,Berdigestyakh,RU,2020-05-09 12:13:35,62.1,126.7,25.99,92,100,5.26,overcast clouds,0,0
330,Bereznik,RU,2020-05-09 12:13:35,62.86,42.71,57.74,44,39,6.06,scattered clouds,0,0
331,Dubna,RU,2020-05-09 12:13:36,56.73,37.17,60.4,50,9,6.17,clear sky,0,0
332,Bandarbeyla,SO,2020-05-09 12:13:36,9.49,50.81,87.15,60,0,12.39,clear sky,0,0
333,Bambous Virieux,MU,2020-05-09 12:06:14,-20.34,57.76,81.0,57,20,10.29,few clouds,0,0
334,Jablunka,CZ,2020-05-09 12:13:36,49.38,17.95,77.0,33,40,4.7,scattered clouds,0,0
335,Thompson,CA,2020-05-09 12:05:50,55.74,-97.86,17.6,92,75,9.17,broken clouds,0,0
336,Sept-Iles,CA,2020-05-09 12:13:36,50.2,-66.38,37.4,59,20,3.36,few clouds,0,0
337,Luganville,VU,2020-05-09 12:13:36,-15.53,167.17,76.91,79,34,6.24,scattered clouds,0,0
338,Leh,IN,2020-05-09 12:09:26,34.17,77.58,50.25,40,92,4.45,overcast clouds,0,0
339,Nome,US,2020-05-09 12:06:05,64.5,-165.41,39.2,78,40,10.29,scattered clouds,0,0
340,Nushki,PK,2020-05-09 12:13:37,29.55,66.02,97.0,9,0,12.28,clear sky,0,0
341,Ipixuna,BR,2020-05-09 12:06:58,-1.76,-48.8,78.8,94,75,2.24,broken clouds,0,0
342,Port Hedland,AU,2020-05-09 12:08:52,-20.32,118.57,77.0,53,42,6.17,scattered clouds,0,0
343,Guarapari,BR,2020-05-09 12:13:37,-20.67,-40.5,73.99,71,0,8.61,clear sky,0,0
344,Naryan-Mar,RU,2020-05-09 12:13:37,67.67,53.09,34.41,99,100,7.81,overcast clouds,0,0
345,Caldwell,US,2020-05-09 12:13:37,43.66,-116.69,53.6,40,1,13.87,clear sky,0,0
346,Chaozhou,CN,2020-05-09 12:13:38,23.67,116.64,86.0,74,20,11.18,few clouds,0,0
347,Dzidzantun,MX,2020-05-09 12:13:38,21.25,-89.05,74.97,93,92,5.23,overcast clouds,0,0
348,Kieta,PG,2020-05-09 12:13:38,-6.22,155.63,80.46,79,88,5.01,overcast clouds,0,0
349,Alyangula,AU,2020-05-09 12:13:38,-13.85,136.42,75.2,100,75,1.12,broken clouds,0,0
350,Fairbanks,US,2020-05-09 12:13:38,64.84,-147.72,50.0,68,1,4.7,clear sky,0,0
351,Jumla,NP,2020-05-09 12:13:38,29.27,82.18,58.35,60,84,4.25,moderate rain,0,0
352,Limenaria,GR,2020-05-09 12:13:39,40.63,24.58,68.0,56,20,9.17,few clouds,0,0
353,Buraydah,SA,2020-05-09 12:06:43,26.33,43.98,100.4,29,100,14.99,overcast clouds,0,0
354,Hambantota,LK,2020-05-09 12:09:36,6.12,81.12,84.99,79,90,13.11,light rain,0,0
355,Hirara,JP,2020-05-09 12:06:47,24.8,125.28,78.8,83,40,10.29,scattered clouds,0,0
356,Lasem,ID,2020-05-09 12:13:39,-6.69,111.45,80.82,83,100,7.14,light rain,0,0
357,Abnub,EG,2020-05-09 12:13:39,27.27,31.15,87.76,17,0,16.15,clear sky,0,0
358,Adre,TD,2020-05-09 12:13:39,13.47,22.2,101.35,8,2,7.4,clear sky,0,0
359,Mildura,AU,2020-05-09 12:05:51,-34.2,142.15,51.8,66,16,8.05,few clouds,0,0
360,Visnes,NO,2020-05-09 12:13:40,59.36,5.22,48.99,66,75,6.93,broken clouds,0,0
361,Zykovo,RU,2020-05-09 12:13:40,55.95,93.15,66.2,39,58,6.71,broken clouds,0,0
362,Ponta Delgada,PT,2020-05-09 12:13:40,37.73,-25.67,62.6,82,40,19.46,scattered clouds,0,0
363,Okhotsk,RU,2020-05-09 12:12:08,59.38,143.3,32.88,93,15,3.04,few clouds,0,0
364,Korla,CN,2020-05-09 12:06:50,41.76,86.15,78.75,17,99,4.12,overcast clouds,0,0
365,Atlantic City,US,2020-05-09 12:10:35,39.36,-74.42,37.99,47,1,14.99,clear sky,0,0
366,Pasighat,IN,2020-05-09 12:13:41,28.07,95.33,78.21,56,0,1.16,clear sky,0,0
367,Igarka,RU,2020-05-09 12:09:51,67.47,86.58,33.51,93,100,14.18,overcast clouds,0,0
368,Arlit,NE,2020-05-09 12:13:41,18.74,7.39,106.09,6,0,5.06,clear sky,0,0
369,Muroto,JP,2020-05-09 12:13:41,33.28,134.15,64.4,93,75,4.7,shower rain,0,0
370,Lampang,TH,2020-05-09 12:13:42,18.33,99.5,90.0,78,75,5.82,thunderstorm,0,0
371,Mongu,ZM,2020-05-09 12:13:42,-15.25,23.13,83.91,32,0,7.96,clear sky,0,0
372,Baykit,RU,2020-05-09 12:06:05,61.67,96.37,55.49,74,100,12.62,light rain,0,0
373,Chengde,CN,2020-05-09 12:13:42,40.97,117.94,62.83,60,99,3.65,overcast clouds,0,0
374,Sabha,LY,2020-05-09 12:13:42,27.04,14.43,96.71,11,8,8.48,clear sky,0,0
375,Hanmer Springs,NZ,2020-05-09 12:13:42,-42.52,172.82,47.8,78,0,4.18,clear sky,0,0
376,Mackenzie,CA,2020-05-09 12:05:56,55.3,-123.17,32.0,73,1,5.79,clear sky,0,0
377,Hasaki,JP,2020-05-09 12:06:53,35.73,140.83,64.4,72,90,9.17,light rain,0,0
378,Derzhavinsk,KZ,2020-05-09 12:13:43,51.1,66.32,77.38,22,35,18.97,scattered clouds,0,0
379,Rawson,AR,2020-05-09 12:12:42,-43.3,-65.1,60.12,48,19,21.47,few clouds,0,0
380,Puerto Suarez,BO,2020-05-09 12:13:43,-18.95,-57.8,57.2,93,0,2.24,clear sky,0,0
381,Weligama,LK,2020-05-09 12:09:06,5.97,80.42,84.63,78,81,6.85,broken clouds,0,0
382,Suntar,RU,2020-05-09 12:07:14,62.14,117.63,36.37,72,52,3.42,broken clouds,0,0
383,Sechura,PE,2020-05-09 12:09:16,-5.56,-80.82,70.7,82,87,9.55,overcast clouds,0,0
384,Pesca,CO,2020-05-09 12:13:44,5.55,-73.05,52.74,88,100,3.58,overcast clouds,0,0
385,Olari,RO,2020-05-09 12:13:44,46.38,21.55,75.2,27,72,3.36,broken clouds,0,0
386,Coxim,BR,2020-05-09 12:13:44,-18.51,-54.76,64.4,69,0,7.92,clear sky,0,0
387,Yenangyaung,MM,2020-05-09 12:13:44,20.47,94.88,102.16,15,0,3.49,clear sky,0,0
388,Kulunda,RU,2020-05-09 12:13:44,52.57,78.94,73.02,30,0,18.66,clear sky,0,0
389,Kanniyakumari,IN,2020-05-09 12:13:44,8.08,77.57,85.98,77,48,11.36,scattered clouds,0,0
390,Araucaria,BR,2020-05-09 12:13:45,-25.59,-49.41,55.99,100,90,3.36,mist,0,0
391,Conil,FR,2020-05-09 12:13:45,44.97,3.72,71.6,35,46,10.29,scattered clouds,0,0
392,Wad Rawah,SD,2020-05-09 12:13:45,15.16,33.14,105.66,7,95,7.2,overcast clouds,0,0
393,Batagay-Alyta,RU,2020-05-09 12:07:06,67.8,130.41,18.36,96,100,1.72,overcast clouds,0,0
394,Tarnogskiy Gorodok,RU,2020-05-09 12:13:45,60.5,43.58,57.36,59,74,6.26,broken clouds,0,0
395,Telimele,GN,2020-05-09 12:13:45,10.92,-13.33,92.3,43,83,6.11,broken clouds,0,0
396,Saldanha,ZA,2020-05-09 12:06:20,-33.01,17.94,84.2,32,0,4.7,clear sky,0,0
397,Yenagoa,NG,2020-05-09 12:06:25,4.92,6.26,97.68,47,81,1.34,broken clouds,0,0
398,Bambanglipuro,ID,2020-05-09 12:13:46,-7.95,110.28,80.26,85,100,5.64,moderate rain,0,0
399,Sishui,CN,2020-05-09 12:13:46,35.65,117.28,61.7,79,100,8.43,overcast clouds,0,0
400,Pisco,PE,2020-05-09 12:06:00,-13.7,-76.22,62.01,93,78,1.12,mist,0,0
401,Rocha,UY,2020-05-09 12:06:58,-34.48,-54.33,51.6,73,64,9.37,broken clouds,0,0
402,Vilhena,BR,2020-05-09 12:10:54,-12.74,-60.15,62.6,93,100,9.17,overcast clouds,0,0
403,Ville-Marie,CA,2020-05-09 12:13:46,47.33,-79.43,23.0,85,1,9.17,clear sky,0,0
404,Airai,TL,2020-05-09 12:05:56,-8.93,125.41,58.62,100,87,3.4,overcast clouds,0,0
405,Paptalaya,HN,2020-05-09 12:13:47,15.5,-84.32,76.82,92,89,1.03,light rain,0,0
406,Maragogi,BR,2020-05-09 12:13:47,-9.01,-35.22,81.46,77,58,9.84,light rain,0,0
407,Porosozero,RU,2020-05-09 12:13:47,62.72,32.73,49.37,63,73,10.65,broken clouds,0,0
408,Teguldet,RU,2020-05-09 12:13:47,57.31,88.17,69.69,54,65,5.73,broken clouds,0,0
409,Bonavista,CA,2020-05-09 12:06:36,48.65,-53.11,37.2,87,2,14.94,clear sky,0,0
410,Sayyan,YE,2020-05-09 12:13:47,15.17,44.32,73.4,21,12,16.53,few clouds,0,0
411,Camacha,PT,2020-05-09 12:06:59,33.08,-16.33,69.8,56,20,18.34,few clouds,0,0
412,San Lucas,MX,2020-05-09 12:13:48,16.6,-92.72,74.3,69,75,1.61,broken clouds,0,0
413,Touros,BR,2020-05-09 12:05:56,-5.2,-35.46,80.6,78,75,8.05,broken clouds,0,0
414,Forbes,AU,2020-05-09 12:13:48,-33.38,148.02,53.01,69,20,8.28,few clouds,0,0
415,Salamiyah,SY,2020-05-09 12:13:48,35.01,37.05,67.42,55,63,24.29,moderate rain,0,0
416,Aksarka,RU,2020-05-09 12:13:48,66.56,67.8,39.63,88,96,7.29,overcast clouds,0,0
417,Constantine,DZ,2020-05-09 12:07:00,36.37,6.61,77.0,47,75,2.24,broken clouds,0,0
418,Xuddur,SO,2020-05-09 12:13:49,4.12,43.89,88.34,50,71,8.43,moderate rain,0,0
419,Stephenville,US,2020-05-09 12:10:25,32.22,-98.2,52.0,71,75,5.82,broken clouds,0,0
420,Praia Da Vitoria,PT,2020-05-09 12:13:49,38.73,-27.07,64.4,88,75,10.6,broken clouds,0,0
421,Pasto,CO,2020-05-09 12:13:49,1.21,-77.28,53.67,89,100,6.96,moderate rain,0,0
422,Sultanpur,IN,2020-05-09 12:13:49,26.27,82.07,106.45,11,0,7.31,clear sky,0,0
423,Illapel,CL,2020-05-09 12:13:49,-31.63,-71.17,58.87,47,0,2.59,clear sky,0,0
424,Singleton,AU,2020-05-09 12:13:50,-32.57,151.18,61.0,65,40,8.01,scattered clouds,0,0
425,Rorvik,NO,2020-05-09 12:13:50,64.86,11.24,39.07,72,77,13.2,broken clouds,0,0
426,Hailar,CN,2020-05-09 12:13:50,49.2,119.7,57.78,42,100,8.41,light rain,0,0
427,Novyy Oskol,RU,2020-05-09 12:13:50,50.76,37.87,57.96,62,75,6.71,light rain,0,0
428,Pombia,IT,2020-05-09 12:13:50,45.65,8.63,75.99,27,20,5.82,few clouds,0,0
429,Cap Malheureux,MU,2020-05-09 12:06:40,-19.98,57.61,81.0,58,1,3.0,clear sky,0,0
430,Yar-Sale,RU,2020-05-09 12:13:51,66.83,70.83,33.82,99,61,5.61,broken clouds,0,0
431,Nogales,MX,2020-05-09 12:13:51,31.31,-110.94,68.0,55,1,2.44,clear sky,0,0
432,Skegness,GB,2020-05-09 12:13:51,53.14,0.34,69.8,52,40,3.36,scattered clouds,0,0
433,Suratgarh,IN,2020-05-09 12:13:51,29.32,73.9,109.98,8,29,13.0,scattered clouds,0,0
434,Sexsmith,CA,2020-05-09 12:13:51,55.35,-118.79,37.4,74,20,10.29,few clouds,0,0
435,Capaci,IT,2020-05-09 12:13:51,38.17,13.24,78.01,68,8,8.05,clear sky,0,0
436,Tandlianwala,PK,2020-05-09 12:13:51,31.03,73.13,110.16,8,2,8.23,clear sky,0,0
437,Mahebourg,MU,2020-05-09 12:06:43,-20.41,57.7,80.6,57,20,10.29,few clouds,0,0
438,Zyryanka,RU,2020-05-09 12:06:06,65.75,150.85,30.22,99,100,8.9,overcast clouds,0,0
439,Russell,US,2020-05-09 12:13:52,32.35,-85.2,51.8,62,1,8.05,clear sky,0,0
440,Cidreira,BR,2020-05-09 12:06:05,-30.18,-50.21,62.11,65,0,5.55,clear sky,0,0
441,Kysyl-Syr,RU,2020-05-09 12:06:54,63.9,122.76,23.07,96,81,1.19,broken clouds,0,0
442,Boguchany,RU,2020-05-09 12:13:52,58.38,97.45,54.82,66,82,7.72,broken clouds,0,0
443,Cururupu,BR,2020-05-09 12:13:53,-1.83,-44.87,83.26,81,84,1.05,light rain,0,0
444,Kalianget,ID,2020-05-09 12:13:53,-7.05,113.93,82.33,84,98,9.66,moderate rain,0,0
445,Naze,JP,2020-05-09 12:06:23,28.37,129.48,73.4,88,90,4.7,overcast clouds,0,0
446,Viedma,AR,2020-05-09 12:13:53,-40.81,-63.0,60.66,46,49,20.13,scattered clouds,0,0
447,Puerto Escondido,MX,2020-05-09 12:13:53,15.85,-97.07,81.23,66,90,5.1,overcast clouds,0,0
448,Teguise,ES,2020-05-09 12:13:53,29.06,-13.56,69.8,77,75,12.75,broken clouds,0,0
449,Bunesti,RO,2020-05-09 12:13:54,46.83,27.97,70.0,39,70,8.05,broken clouds,0,0
450,Port Hardy,CA,2020-05-09 12:06:16,50.7,-127.42,41.0,93,40,2.24,scattered clouds,0,0
451,Australind,AU,2020-05-09 12:13:54,-33.27,115.72,48.99,60,0,2.84,clear sky,0,0
452,Roma,US,2020-05-09 12:13:05,43.21,-75.46,30.99,68,20,9.17,few clouds,0,0
453,Kenai,US,2020-05-09 12:13:54,60.55,-151.26,48.2,70,90,8.05,overcast clouds,0,0
454,Jaguarao,BR,2020-05-09 12:13:55,-32.57,-53.38,54.12,72,8,6.22,clear sky,0,0
455,Sciacca,IT,2020-05-09 12:13:55,37.51,13.09,72.0,71,79,8.99,broken clouds,0,0
456,Flin Flon,CA,2020-05-09 12:07:07,54.77,-101.86,28.4,74,40,6.93,scattered clouds,0,0
457,Villefontaine,FR,2020-05-09 12:13:55,45.61,5.15,77.0,23,24,16.11,few clouds,0,0
458,Tual,ID,2020-05-09 12:13:55,-5.67,132.75,83.64,77,3,21.25,clear sky,0,0
459,Avanigadda,IN,2020-05-09 12:13:55,16.02,80.92,93.67,47,1,11.39,clear sky,0,0
460,The Pas,CA,2020-05-09 12:13:55,53.83,-101.25,26.6,79,75,4.7,broken clouds,0,0
461,Nago,JP,2020-05-09 12:13:56,26.59,127.98,75.2,88,90,6.93,overcast clouds,0,0
462,Sendai,JP,2020-05-09 12:11:29,38.27,140.87,60.8,77,75,2.24,broken clouds,0,0
463,Mazyr,BY,2020-05-09 12:13:56,52.05,29.25,59.88,46,62,4.83,broken clouds,0,0
464,Biak,ID,2020-05-09 12:13:56,-0.91,122.88,79.88,81,100,5.21,moderate rain,0,0
465,Ulaangom,MN,2020-05-09 12:13:56,49.98,92.07,55.58,32,0,8.05,clear sky,0,0
466,Klaksvik,FO,2020-05-09 12:13:56,62.23,-6.59,37.4,82,98,25.28,light rain,0,0
467,Arman,RU,2020-05-09 12:13:56,59.7,150.17,36.19,80,20,6.78,few clouds,0,0
468,Ellisras,ZA,2020-05-09 12:13:57,-23.66,27.74,82.26,27,2,1.77,clear sky,0,0
469,Yabrud,SY,2020-05-09 12:13:57,33.97,36.66,68.0,42,40,14.99,scattered clouds,0,0
470,Ekibastuz,KZ,2020-05-09 12:13:57,51.67,75.37,74.73,24,2,18.57,clear sky,0,0
471,Christchurch,NZ,2020-05-09 12:09:49,-43.53,172.63,55.99,87,5,11.41,clear sky,0,0
472,Broome,US,2020-05-09 12:04:31,42.25,-75.83,28.99,73,20,14.99,few clouds,0,0
473,Skjervoy,NO,2020-05-09 12:13:57,70.03,20.97,35.2,79,98,16.02,light snow,0,0
474,Tomatlan,MX,2020-05-09 12:06:28,19.93,-105.25,71.98,73,0,1.7,clear sky,0,0
475,Canon City,US,2020-05-09 12:13:58,38.44,-105.24,39.99,49,0,1.99,clear sky,0,0
476,Salinas,US,2020-05-09 12:13:58,36.68,-121.66,51.8,93,90,4.7,mist,0,0
477,Taitung,TW,2020-05-09 12:09:19,22.76,121.14,82.4,83,20,3.36,few clouds,0,0
478,Saint-Augustin,CA,2020-05-09 12:06:28,51.23,-58.65,38.19,90,83,12.39,broken clouds,0,0
479,Egvekinot,RU,2020-05-09 12:06:18,66.32,-179.17,29.46,95,90,12.95,overcast clouds,0,0
480,San Quintin,MX,2020-05-09 12:06:19,30.48,-115.95,63.03,86,33,3.67,scattered clouds,0,0
481,Dubai,AE,2020-05-09 12:10:57,25.26,55.3,96.8,41,0,10.29,clear sky,0,0
482,Port Macquarie,AU,2020-05-09 12:07:08,-31.43,152.92,57.99,94,88,9.22,overcast clouds,0,0
483,Kondinskoye,RU,2020-05-09 12:13:59,59.65,67.41,79.75,25,0,11.14,clear sky,0,0
484,Cao Bang,VN,2020-05-09 12:13:59,22.67,106.25,85.5,67,6,4.47,clear sky,0,0
485,Tessalit,ML,2020-05-09 12:13:59,20.2,1.01,103.51,7,0,5.14,clear sky,0,0
486,Matai,TZ,2020-05-09 12:13:59,-8.3,31.52,72.23,65,38,6.11,light rain,0,0
487,Bartlesville,US,2020-05-09 12:13:59,36.75,-95.98,43.0,93,1,2.82,clear sky,0,0
488,Kendari,ID,2020-05-09 12:13:59,-3.94,122.5,77.05,86,78,3.89,broken clouds,0,0
489,Severo-Yeniseyskiy,RU,2020-05-09 12:13:59,60.37,93.04,59.07,67,100,8.59,light rain,0,0
490,San Patricio,MX,2020-05-09 12:06:42,19.22,-104.7,74.03,63,0,3.24,clear sky,0,0
491,Xuanhua,CN,2020-05-09 12:14:00,40.61,115.04,69.85,20,100,6.26,overcast clouds,0,0
492,Matay,EG,2020-05-09 12:14:00,28.42,30.78,86.22,21,3,13.65,clear sky,0,0
493,Olafsvik,IS,2020-05-09 12:14:00,64.89,-23.71,35.26,75,0,9.04,clear sky,0,0
494,Bouna,CI,2020-05-09 12:14:00,9.27,-3.0,90.09,54,83,7.61,broken clouds,0,0
495,Bobo Dioulasso,BF,2020-05-09 12:14:00,11.18,-4.3,91.4,55,22,11.41,few clouds,0,0
496,Jesus Carranza,MX,2020-05-09 12:14:01,17.43,-95.03,76.5,83,79,1.9,broken clouds,0,0
497,Krasnyy Oktyabr,RU,2020-05-09 12:14:01,56.12,38.88,54.61,69,100,7.9,overcast clouds,0,0
498,Hudson Bay,CA,2020-05-09 12:14:01,52.85,-102.38,27.54,96,94,5.75,overcast clouds,0,0
499,Bechyne,CZ,2020-05-09 12:14:01,49.3,14.47,73.0,41,100,4.0,light rain,0,0
500,Kirakira,SB,2020-05-09 12:14:02,-10.45,161.92,78.62,82,5,8.05,clear sky,0,0
501,Krasnoselkup,RU,2020-05-09 12:06:47,65.7,82.47,37.51,90,100,10.76,overcast clouds,0,0
502,Nagua,DO,2020-05-09 12:14:02,19.38,-69.85,80.58,76,72,10.33,broken clouds,0,0
503,Waingapu,ID,2020-05-09 12:14:02,-9.66,120.26,77.59,80,96,9.19,overcast clouds,0,0
504,Taveta,KE,2020-05-09 12:14:02,-3.4,37.67,80.19,56,71,9.55,broken clouds,0,0
505,Mitchell,US,2020-05-09 12:14:02,43.71,-98.03,44.6,56,1,9.17,clear sky,0,0
506,Paracatu,BR,2020-05-09 12:12:28,-17.22,-46.87,64.85,87,72,8.88,broken clouds,0,0
507,Mmabatho,ZA,2020-05-09 12:14:03,-25.85,25.63,80.6,18,20,2.24,few clouds,0,0
508,Nowy Tomysl,PL,2020-05-09 12:14:03,52.32,16.13,69.8,28,52,5.82,broken clouds,0,0
509,Havre,FR,2020-05-09 12:14:03,49.58,0.33,68.0,59,86,2.24,overcast clouds,0,0
510,Emba,KZ,2020-05-09 12:14:03,48.83,58.14,71.58,43,27,10.74,scattered clouds,0,0
511,Quimper,FR,2020-05-09 12:12:25,48.0,-4.1,68.0,77,90,6.93,overcast clouds,0,0
512,Saint Paul,US,2020-05-09 12:10:38,44.94,-93.09,37.0,69,40,2.17,scattered clouds,0,0
513,Kyzyl-Suu,KG,2020-05-09 12:14:03,42.34,78.0,59.14,50,97,4.18,light rain,0,0
514,Malanje,AO,2020-05-09 12:14:04,-9.54,16.34,80.6,78,40,8.05,scattered clouds,0,0
515,Riachao Das Neves,BR,2020-05-09 12:14:04,-11.75,-44.91,71.64,83,86,4.43,overcast clouds,0,0
516,La Paz,BO,2020-05-09 12:11:45,-16.5,-68.15,35.6,51,65,3.36,broken clouds,0,0
517,Jiuquan,CN,2020-05-09 12:14:04,39.74,98.52,66.29,21,47,7.99,scattered clouds,0,0
518,Kalemie,CD,2020-05-09 12:14:04,-5.95,29.19,78.55,69,11,11.39,few clouds,0,0
519,Hobyo,SO,2020-05-09 12:06:37,5.35,48.53,87.87,62,5,11.48,clear sky,0,0
520,Warrington,GB,2020-05-09 12:14:05,53.39,-2.58,75.0,46,60,4.7,broken clouds,0,0
521,Talgar,KZ,2020-05-09 12:14:05,43.3,77.24,75.2,38,75,4.47,broken clouds,0,0
522,Ranong,TH,2020-05-09 12:14:05,9.97,98.63,91.4,70,40,1.12,scattered clouds,0,0
523,Pierre,US,2020-05-09 12:11:00,44.37,-100.35,46.99,70,40,10.29,scattered clouds,0,0
524,Chekhov,RU,2020-05-09 12:14:05,55.14,37.47,57.0,58,75,13.42,broken clouds,0,0
525,College,US,2020-05-09 12:14:05,64.86,-147.8,50.0,52,75,6.93,broken clouds,0,0
526,Broken Hill,AU,2020-05-09 12:14:05,-31.95,141.43,51.8,43,0,11.41,clear sky,0,0
527,Neyvo-Shaytanskiy,RU,2020-05-09 12:14:05,57.73,61.25,78.64,23,0,8.3,clear sky,0,0
528,Basoko,CD,2020-05-09 12:14:06,1.24,23.62,82.51,66,79,6.13,light rain,0,0
529,Shagonar,RU,2020-05-09 12:14:06,51.53,92.8,53.47,40,2,3.04,clear sky,0,0
530,Ledyard,US,2020-05-09 12:14:06,41.44,-72.01,39.2,51,1,19.46,clear sky,0,0
531,Douglas,US,2020-05-09 12:13:01,41.3,-96.17,41.0,93,1,7.14,mist,0,0
532,Aykhal,RU,2020-05-09 12:09:33,66.0,111.5,35.6,55,99,8.95,light snow,0,0
533,Sao Jose Da Laje,BR,2020-05-09 12:14:06,-9.01,-36.06,84.2,70,40,4.7,scattered clouds,0,0
534,Lavrentiya,RU,2020-05-09 12:06:24,65.58,-171.0,29.68,96,20,8.37,few clouds,0,0
535,Bilibino,RU,2020-05-09 12:14:07,68.05,166.44,26.98,92,9,8.19,clear sky,0,0
536,Alizai,PK,2020-05-09 12:14:07,33.54,70.35,85.32,30,0,7.27,clear sky,0,0
537,Salekhard,RU,2020-05-09 12:14:07,66.53,66.6,40.17,83,48,5.66,scattered clouds,0,0
538,Anito,PH,2020-05-09 12:14:07,12.45,125.29,80.53,81,29,6.06,scattered clouds,0,0
539,Michigan City,US,2020-05-09 12:13:21,41.71,-86.89,35.01,71,1,6.93,clear sky,0,0
540,Orange,US,2020-05-09 12:13:08,33.7,-117.77,64.0,91,100,2.46,overcast clouds,0,0
541,Timmins,CA,2020-05-09 12:14:07,48.47,-81.33,23.0,62,75,11.41,broken clouds,0,0
542,Paita,PE,2020-05-09 12:06:39,-5.09,-81.11,70.41,85,82,10.0,broken clouds,0,0
543,Hualmay,PE,2020-05-09 12:14:08,-11.1,-77.61,66.96,85,78,6.71,broken clouds,0,0
544,Vao,NC,2020-05-09 12:06:34,-22.67,167.48,73.2,79,16,17.94,light rain,0,0
545,Lulea,SE,2020-05-09 12:14:08,65.58,22.15,46.4,33,34,9.17,scattered clouds,0,0
546,Bichena,ET,2020-05-09 12:14:08,10.45,38.2,76.53,30,91,7.07,overcast clouds,0,0
547,Barro,BR,2020-05-09 12:14:08,-6.72,-38.87,77.86,69,6,6.4,clear sky,0,0
548,Havre-Saint-Pierre,CA,2020-05-09 12:14:09,50.23,-63.6,37.4,86,90,10.29,overcast clouds,0,0
549,Towada,JP,2020-05-09 12:14:09,40.61,141.21,64.4,55,75,8.05,light intensity shower rain,0,0
550,Alvaraes,BR,2020-05-09 12:14:09,-3.22,-64.8,73.67,97,100,1.36,light rain,0,0
551,Abay,KZ,2020-05-09 12:14:09,49.63,72.85,80.6,18,94,13.42,overcast clouds,0,0
552,Usinsk,RU,2020-05-09 12:14:09,65.99,57.53,52.56,44,2,8.79,clear sky,0,0
553,Srednekolymsk,RU,2020-05-09 12:14:09,67.45,153.68,29.21,98,78,8.52,broken clouds,0,0
554,Mount Gambier,AU,2020-05-09 12:07:07,-37.83,140.77,44.6,87,40,12.75,scattered clouds,0,0
555,Guaratinga,BR,2020-05-09 12:14:10,-16.57,-39.57,69.8,88,75,6.93,broken clouds,0,0
