,City,Country,Date,Lat,Lng,Max Temp,Humidity,Cloudiness,Wind Speed,Current Description,Rain Inches (last 3 hrs),Snow Inches (last 3 hrs)
0,Punta Arenas,CL,2020-05-10 00:40:56,-53.15,-70.92,44.6,93,90,3.36,overcast clouds,0,0
1,Hilo,US,2020-05-10 00:40:38,19.73,-155.09,80.6,57,40,8.05,scattered clouds,0,0
2,Norman Wells,CA,2020-05-10 00:45:02,65.28,-126.83,48.2,45,5,18.34,clear sky,0,0
3,Grand Gaube,MU,2020-05-10 00:45:02,-20.01,57.66,70.0,82,36,5.01,scattered clouds,0,0
4,Butaritari,KI,2020-05-10 00:40:44,3.07,172.79,83.68,78,31,9.22,scattered clouds,0,0
5,Wuzhou,CN,2020-05-10 00:45:04,23.48,111.32,85.87,75,38,3.71,moderate rain,0,0
6,Vaini,TO,2020-05-10 00:41:11,-21.2,-175.2,80.6,94,75,10.29,thunderstorm,0,0
7,Sisimiut,GL,2020-05-10 00:44:11,66.94,-53.67,34.57,91,100,9.44,overcast clouds,0,0
8,Thompson,CA,2020-05-10 00:45:04,55.74,-97.86,37.4,40,75,13.87,broken clouds,0,0
9,Lebu,CL,2020-05-10 00:45:04,-37.62,-73.65,57.36,88,100,17.25,light rain,0,0
10,Tarko-Sale,RU,2020-05-10 00:42:47,64.92,77.78,37.99,82,92,11.54,overcast clouds,0,0
11,Khilok,RU,2020-05-10 00:45:05,51.37,110.47,46.26,52,0,14.36,clear sky,0,0
12,Matara,LK,2020-05-10 00:45:05,5.95,80.54,80.29,88,96,3.58,overcast clouds,0,0
13,Avarua,CK,2020-05-10 00:41:01,-21.21,-159.78,82.4,74,0,14.99,clear sky,0,0
14,Beloha,MG,2020-05-10 00:45:05,-25.17,45.05,65.3,87,10,12.33,clear sky,0,0
15,Mataura,NZ,2020-05-10 00:41:11,-46.19,168.86,58.95,64,100,3.38,overcast clouds,0,0
16,Leningradskiy,RU,2020-05-10 00:45:06,69.38,178.42,28.18,96,100,11.41,overcast clouds,0,0
17,San Quintin,MX,2020-05-10 00:45:06,30.48,-115.95,68.18,70,0,8.88,clear sky,0,0
18,Rikitea,PF,2020-05-10 00:40:43,-23.12,-134.97,75.92,69,6,3.83,clear sky,0,0
19,Jamestown,US,2020-05-10 00:45:06,42.1,-79.24,35.6,69,90,9.17,overcast clouds,0,0
20,Hithadhoo,MV,2020-05-10 00:45:06,-0.6,73.08,84.63,76,99,11.3,light rain,0,0
21,Sombrerete,MX,2020-05-10 00:45:06,23.63,-103.65,59.63,52,89,4.94,light rain,0,0
22,Lishu,CN,2020-05-10 00:45:06,43.3,124.33,70.02,45,0,14.97,clear sky,0,0
23,Narrabri,AU,2020-05-10 00:45:07,-30.32,149.78,57.2,47,0,12.75,clear sky,0,0
24,Makakilo City,US,2020-05-10 00:45:38,21.35,-158.09,84.2,51,1,16.11,clear sky,0,0
25,Bluff,NZ,2020-05-10 00:45:39,-46.6,168.33,57.36,72,100,6.35,overcast clouds,0,0
26,Gumdag,TM,2020-05-10 00:45:39,39.21,54.59,73.98,39,4,19.64,clear sky,0,0
27,Ahuimanu,US,2020-05-10 00:45:39,21.44,-157.84,87.8,48,20,11.41,few clouds,0,0
28,Djibo,BF,2020-05-10 00:45:39,14.1,-1.63,91.98,30,0,9.95,clear sky,0,0
29,Manicore,BR,2020-05-10 00:45:39,-5.81,-61.3,75.27,95,68,1.61,broken clouds,0,0
30,Tasiilaq,GL,2020-05-10 00:42:27,65.61,-37.64,30.2,74,47,13.87,scattered clouds,0,0
31,Hua Hin,TH,2020-05-10 00:45:40,12.57,99.96,86.0,66,20,3.36,few clouds,0,0
32,Ushuaia,AR,2020-05-10 00:45:40,-54.8,-68.3,44.6,75,85,3.36,overcast clouds,0,0
33,Tiznit,MA,2020-05-10 00:45:40,29.58,-9.5,59.4,83,95,9.62,overcast clouds,0,0
34,Hobart,AU,2020-05-10 00:45:40,-42.88,147.33,51.8,57,20,9.17,few clouds,0,0
35,Manono,CD,2020-05-10 00:45:40,-7.3,27.42,67.55,78,1,3.67,clear sky,0,0
36,Nome,US,2020-05-10 00:41:04,64.5,-165.41,48.99,61,1,14.99,clear sky,0,0
37,Zemio,CF,2020-05-10 00:45:40,5.03,25.14,68.14,95,15,2.04,few clouds,0,0
38,Abilene,US,2020-05-10 00:45:05,32.45,-99.73,77.0,33,1,9.17,clear sky,0,0
39,Tiksi,RU,2020-05-10 00:40:45,71.69,128.87,24.24,94,0,3.78,clear sky,0,0
40,Atuona,PF,2020-05-10 00:45:41,-9.8,-139.03,80.8,79,92,19.08,overcast clouds,0,0
41,Klaksvik,FO,2020-05-10 00:45:41,62.23,-6.59,30.2,63,100,13.87,light snow,0,0
42,Ponta Do Sol,PT,2020-05-10 00:45:41,32.67,-17.1,68.0,68,40,8.05,scattered clouds,0,0
43,Sao Joao Da Barra,BR,2020-05-10 00:45:42,-21.64,-41.05,69.44,64,0,8.68,clear sky,0,0
44,Coihaique,CL,2020-05-10 00:40:42,-45.58,-72.07,41.0,100,90,5.82,light rain,0,0
45,Nikolskoye,RU,2020-05-10 00:45:42,59.7,30.79,43.0,74,100,4.47,overcast clouds,0,0
46,Arawa,PG,2020-05-10 00:45:42,-6.21,155.54,88.14,64,99,6.08,light rain,0,0
47,Saint-Philippe,RE,2020-05-10 00:45:42,-21.36,55.77,69.8,73,47,6.93,light rain,0,0
48,Port Alfred,ZA,2020-05-10 00:45:42,-33.59,26.89,61.0,92,0,7.61,clear sky,0,0
49,Sinnamary,GF,2020-05-10 00:45:42,5.38,-52.95,78.17,88,98,12.3,moderate rain,0,0
50,Saint-Francois,FR,2020-05-10 00:45:43,46.42,3.91,59.0,62,34,3.36,scattered clouds,0,0
51,Tawang,IN,2020-05-10 00:45:43,27.58,91.87,54.01,51,0,1.05,clear sky,0,0
52,Cidreira,BR,2020-05-10 00:41:03,-30.18,-50.21,63.52,82,0,8.72,clear sky,0,0
53,Cabo San Lucas,MX,2020-05-10 00:45:43,22.89,-109.91,80.6,42,20,6.93,few clouds,0,0
54,Sitka,US,2020-05-10 00:45:43,57.05,-135.33,69.8,30,75,8.05,broken clouds,0,0
55,Hambantota,LK,2020-05-10 00:45:43,6.12,81.12,81.55,83,57,4.23,broken clouds,0,0
56,Salekhard,RU,2020-05-10 00:45:44,66.53,66.6,35.22,93,100,1.54,light rain,0,0
57,Inirida,CO,2020-05-10 00:45:44,3.87,-67.92,75.52,91,99,1.95,overcast clouds,0,0
58,Avera,US,2020-05-10 00:45:44,33.19,-82.53,60.8,55,1,3.36,clear sky,0,0
59,Itoman,JP,2020-05-10 00:43:45,26.12,127.67,80.01,88,40,8.05,scattered clouds,0,0
60,Hermanus,ZA,2020-05-10 00:40:49,-34.42,19.23,57.0,82,0,6.42,clear sky,0,0
61,Busselton,AU,2020-05-10 00:45:44,-33.65,115.33,51.01,73,3,2.35,clear sky,0,0
62,Sol-Iletsk,RU,2020-05-10 00:45:44,51.16,54.99,56.21,84,100,16.2,overcast clouds,0,0
63,Khatanga,RU,2020-05-10 00:45:45,71.97,102.5,26.4,98,84,9.8,broken clouds,0,0
64,Alofi,NU,2020-05-10 00:45:45,-19.06,-169.92,84.2,74,100,11.41,overcast clouds,0,0
65,Abu Dhabi,AE,2020-05-10 00:45:45,24.47,54.37,82.99,78,0,2.24,clear sky,0,0
66,Puerto Leguizamo,CO,2020-05-10 00:45:45,-0.19,-74.78,69.3,95,100,1.01,overcast clouds,0,0
67,San Luis,AR,2020-05-10 00:45:45,-33.3,-66.34,57.7,61,0,6.38,clear sky,0,0
68,Cape Town,ZA,2020-05-10 00:45:09,-33.93,18.42,57.2,100,90,4.7,fog,0,0
69,Saint George,US,2020-05-10 00:41:31,37.1,-113.58,93.0,8,1,12.75,clear sky,0,0
70,Miles City,US,2020-05-10 00:45:46,46.41,-105.84,53.6,50,75,6.93,broken clouds,0,0
71,Saldanha,ZA,2020-05-10 00:45:46,-33.01,17.94,57.2,67,0,1.12,clear sky,0,0
72,Santiago,CL,2020-05-10 00:45:46,-33.46,-70.65,60.8,59,0,8.05,clear sky,0,0
73,Bethel,US,2020-05-10 00:45:46,41.37,-73.41,34.0,86,75,8.05,mist,0,0
74,Los Chiles,CR,2020-05-10 00:45:46,11.03,-84.72,73.99,90,100,15.99,overcast clouds,0,0
75,Kapaa,US,2020-05-10 00:41:23,22.08,-159.32,78.8,65,40,19.46,scattered clouds,0,0
76,Bredasdorp,ZA,2020-05-10 00:45:47,-34.53,20.04,59.0,93,0,3.36,clear sky,0,0
77,Ixtapa,MX,2020-05-10 00:45:47,20.7,-105.2,82.4,34,40,11.41,scattered clouds,0,0
78,Pevek,RU,2020-05-10 00:45:47,69.7,170.31,37.58,75,100,16.73,overcast clouds,0,0
79,Sao Filipe,CV,2020-05-10 00:42:15,14.9,-24.5,73.81,74,100,8.81,overcast clouds,0,0
80,Benghazi,LY,2020-05-10 00:45:47,32.12,20.07,67.75,45,0,12.59,clear sky,0,0
81,Airai,TL,2020-05-10 00:45:47,-8.93,125.41,68.14,78,51,4.59,broken clouds,0,0
82,Saskylakh,RU,2020-05-10 00:45:48,71.92,114.08,24.31,97,100,8.23,light snow,0,0
83,Vardo,NO,2020-05-10 00:45:48,70.37,31.11,33.24,90,100,2.08,overcast clouds,0,0
84,Manoel Urbano,BR,2020-05-10 00:45:48,-8.84,-69.26,72.91,74,52,1.3,broken clouds,0,0
85,Alyangula,AU,2020-05-10 00:45:48,-13.85,136.42,84.2,66,0,8.05,clear sky,0,0
86,Kathmandu,NP,2020-05-10 00:45:20,27.72,85.32,64.4,88,75,3.36,broken clouds,0,0
87,Barrow,US,2020-05-10 00:45:48,71.29,-156.79,30.2,86,1,8.05,clear sky,0,0
88,Turukhansk,RU,2020-05-10 00:45:49,65.82,87.98,34.66,85,86,7.43,overcast clouds,0,0
89,Tshikapa,CD,2020-05-10 00:41:36,-6.42,20.8,72.36,81,98,1.25,overcast clouds,0,0
90,Khalilabad,IN,2020-05-10 00:45:49,26.77,83.07,85.91,23,9,10.42,clear sky,0,0
91,Constitucion,CL,2020-05-10 00:45:49,-35.33,-72.42,55.35,90,22,0.09,few clouds,0,0
92,Kruisfontein,ZA,2020-05-10 00:45:49,-34.0,24.73,60.51,48,0,5.91,clear sky,0,0
93,Sangar,RU,2020-05-10 00:45:49,63.92,127.47,29.8,92,52,5.93,broken clouds,0,0
94,Valparaiso,CL,2020-05-10 00:45:50,-33.04,-71.63,53.6,87,6,6.93,clear sky,0,0
95,Athni,IN,2020-05-10 00:45:50,16.73,75.07,79.79,56,3,4.0,clear sky,0,0
96,Upernavik,GL,2020-05-10 00:45:50,72.79,-56.15,17.69,93,100,11.45,overcast clouds,0,0
97,Saint-Pierre,RE,2020-05-10 00:42:38,-21.34,55.48,69.8,73,12,6.93,few clouds,0,0
98,Ostrovnoy,RU,2020-05-10 00:45:50,68.05,39.51,33.42,94,100,7.38,snow,0,0
99,Praia Da Vitoria,PT,2020-05-10 00:45:50,38.73,-27.07,64.4,93,75,19.44,broken clouds,0,0
100,Camana,PE,2020-05-10 00:45:51,-16.62,-72.71,66.87,80,98,5.48,overcast clouds,0,0
101,Karaton,ID,2020-05-10 00:45:51,-6.34,106.1,82.4,88,20,3.36,mist,0,0
102,Saint-Augustin,CA,2020-05-10 00:45:51,51.23,-58.65,34.45,95,100,20.94,light rain,0,0
103,Mangan,IN,2020-05-10 00:45:51,27.52,88.53,71.51,31,0,4.09,clear sky,0,0
104,Albany,US,2020-05-10 00:45:32,42.6,-73.97,36.0,52,19,4.0,few clouds,0,0
105,Longyearbyen,SJ,2020-05-10 00:41:56,78.22,15.64,15.8,61,20,11.41,few clouds,0,0
106,Vao,NC,2020-05-10 00:45:51,-22.67,167.48,72.34,69,100,10.87,overcast clouds,0,0
107,Yarmouth,US,2020-05-10 00:45:52,41.71,-70.23,41.0,43,0,20.69,clear sky,0,0
108,Akdepe,TM,2020-05-10 00:45:52,42.06,59.38,66.2,67,0,6.93,clear sky,0,0
109,Tevriz,RU,2020-05-10 00:45:52,57.51,72.4,59.43,54,0,4.07,clear sky,0,0
110,Qaanaaq,GL,2020-05-10 00:45:52,77.48,-69.36,10.6,83,100,3.76,overcast clouds,0,0
111,New Norfolk,AU,2020-05-10 00:45:52,-42.78,147.06,51.01,66,0,5.99,clear sky,0,0
112,Pontes E Lacerda,BR,2020-05-10 00:45:52,-15.23,-59.34,69.64,93,12,3.18,few clouds,0,0
113,Yar-Sale,RU,2020-05-10 00:45:53,66.83,70.83,34.68,93,100,8.43,overcast clouds,0,0
114,East London,ZA,2020-05-10 00:45:53,-33.02,27.91,64.8,62,1,6.53,clear sky,0,0
115,Chuy,UY,2020-05-10 00:41:52,-33.7,-53.46,55.42,75,0,7.81,clear sky,0,0
116,Castro,BR,2020-05-10 00:45:47,-24.79,-50.01,50.94,88,0,3.49,clear sky,0,0
117,Baragua,CU,2020-05-10 00:45:53,21.7,-78.63,78.08,82,69,8.81,light rain,0,0
118,Esperance,AU,2020-05-10 00:45:53,-33.87,121.9,50.0,76,0,14.99,clear sky,0,0
119,Byron Bay,AU,2020-05-10 00:45:53,-28.65,153.62,72.0,68,0,10.29,clear sky,0,0
120,Termoli,IT,2020-05-10 00:45:54,41.99,14.99,62.01,60,98,6.58,overcast clouds,0,0
121,Kollam,IN,2020-05-10 00:43:01,8.88,76.6,82.4,83,40,2.24,mist,0,0
122,Ancud,CL,2020-05-10 00:45:54,-41.87,-73.82,48.99,87,40,9.17,scattered clouds,0,0
123,Manokwari,ID,2020-05-10 00:45:54,-0.87,134.08,85.41,70,22,4.7,few clouds,0,0
124,Plougastel-Daoulas,FR,2020-05-10 00:45:54,48.37,-4.37,57.2,93,82,4.7,mist,0,0
125,Arlit,NE,2020-05-10 00:40:55,18.74,7.39,84.07,12,0,6.78,clear sky,0,0
126,Tuim,RU,2020-05-10 00:45:55,54.34,89.93,55.58,41,0,3.18,clear sky,0,0
127,Yarkovo,RU,2020-05-10 00:45:55,57.4,67.08,59.38,47,14,6.26,few clouds,0,0
128,Haines Junction,CA,2020-05-10 00:45:55,60.75,-137.51,67.87,29,96,1.77,overcast clouds,0,0
129,Gobabis,NA,2020-05-10 00:45:55,-22.45,18.97,53.6,54,0,3.36,clear sky,0,0
130,Petropavlovsk-Kamchatskiy,RU,2020-05-10 00:44:19,53.05,158.65,48.2,31,10,20.13,clear sky,0,0
131,Pangody,RU,2020-05-10 00:45:55,65.85,74.49,34.25,88,100,13.31,overcast clouds,0,0
132,Calvinia,ZA,2020-05-10 00:45:56,-31.47,19.78,62.53,28,0,6.85,clear sky,0,0
133,Tual,ID,2020-05-10 00:45:56,-5.67,132.75,83.62,79,98,17.83,overcast clouds,0,0
134,Ilulissat,GL,2020-05-10 00:45:56,69.22,-51.1,30.2,92,100,1.12,light snow,0,0
135,Porto Santo,PT,2020-05-10 00:45:56,33.07,-16.34,64.4,93,75,16.11,broken clouds,0,0
136,Kagoro,NG,2020-05-10 00:45:56,9.6,8.38,73.27,75,100,3.36,overcast clouds,0,0
137,Mahebourg,MU,2020-05-10 00:45:56,-20.41,57.7,73.4,83,40,8.05,shower rain,0,0
138,Salalah,OM,2020-05-10 00:45:57,17.02,54.09,82.4,83,20,1.12,few clouds,0,0
139,Luderitz,NA,2020-05-10 00:45:57,-26.65,15.16,57.2,82,0,5.37,clear sky,0,0
140,Jalu,LY,2020-05-10 00:45:57,29.03,21.55,66.13,25,1,6.71,clear sky,0,0
141,Skjervoy,NO,2020-05-10 00:45:57,70.03,20.97,33.01,85,100,17.58,overcast clouds,0,0
142,Raudeberg,NO,2020-05-10 00:45:57,61.99,5.14,35.01,91,100,27.63,snow,0,0
143,Florianopolis,BR,2020-05-10 00:45:57,-27.61,-48.5,68.0,82,0,6.93,clear sky,0,0
144,Kulhudhuffushi,MV,2020-05-10 00:45:58,6.62,73.07,81.54,83,100,6.46,moderate rain,0,0
145,Faanui,PF,2020-05-10 00:45:58,-16.48,-151.75,80.98,82,1,17.34,clear sky,0,0
146,Cherskiy,RU,2020-05-10 00:45:58,68.75,161.3,45.39,58,100,13.44,overcast clouds,0,0
147,Zhigalovo,RU,2020-05-10 00:45:58,54.81,105.16,49.5,64,100,11.99,overcast clouds,0,0
148,Georgetown,MY,2020-05-10 00:44:14,5.41,100.34,82.4,100,20,3.36,mist,0,0
149,Kaitangata,NZ,2020-05-10 00:45:58,-46.28,169.85,55.99,66,95,1.99,overcast clouds,0,0
150,San Cristobal,VE,2020-05-10 00:41:38,7.77,-72.22,67.32,89,99,3.44,overcast clouds,0,0
151,Nelson Bay,AU,2020-05-10 00:45:59,-32.72,152.15,62.01,44,0,16.11,clear sky,0,0
152,Lorengau,PG,2020-05-10 00:45:59,-2.02,147.27,86.79,69,0,9.35,clear sky,0,0
153,Marsh Harbour,BS,2020-05-10 00:45:59,26.54,-77.06,77.76,72,48,9.06,scattered clouds,0,0
154,Bengkulu,ID,2020-05-10 00:45:59,-3.8,102.27,78.85,85,100,3.42,overcast clouds,0,0
155,Victoria,HK,2020-05-10 00:44:39,22.29,114.16,86.0,70,40,6.93,scattered clouds,0,0
156,Westport,US,2020-05-10 00:41:24,41.14,-73.36,37.0,80,90,13.87,light rain,0,0
157,Ahipara,NZ,2020-05-10 00:46:00,-35.17,173.17,65.26,65,76,7.72,broken clouds,0,0
158,Lasa,IT,2020-05-10 00:43:53,46.62,10.7,51.8,87,40,6.93,scattered clouds,0,0
159,Nizhniy Tsasuchey,RU,2020-05-10 00:46:00,50.52,115.13,48.9,41,10,19.19,clear sky,0,0
160,Necochea,AR,2020-05-10 00:46:00,-38.55,-58.74,54.0,84,0,1.99,clear sky,0,0
161,Praia,CV,2020-05-10 00:46:00,14.92,-23.51,71.6,78,75,19.46,broken clouds,0,0
162,Namtsy,RU,2020-05-10 00:46:00,62.72,129.67,32.0,77,1,8.95,clear sky,0,0
163,Ribeira Grande,PT,2020-05-10 00:46:01,38.52,-28.7,62.47,83,96,24.96,overcast clouds,0,0
164,Balancan,MX,2020-05-10 00:46:01,17.8,-91.53,81.64,78,100,8.3,moderate rain,0,0
165,Tuktoyaktuk,CA,2020-05-10 00:46:01,69.45,-133.04,35.6,80,40,14.99,scattered clouds,0,0
166,Bambous Virieux,MU,2020-05-10 00:46:01,-20.34,57.76,73.4,83,40,8.05,shower rain,0,0
167,Nanortalik,GL,2020-05-10 00:46:01,60.14,-45.24,39.83,70,0,16.8,clear sky,0,0
168,Kahului,US,2020-05-10 00:44:03,20.89,-156.47,80.6,61,40,19.46,scattered clouds,0,0
169,Haapiti,PF,2020-05-10 00:46:02,-17.57,-149.87,87.8,62,0,6.93,clear sky,0,0
170,Belmonte,BR,2020-05-10 00:46:02,-15.86,-38.88,69.8,77,40,5.82,scattered clouds,0,0
171,Wanaka,NZ,2020-05-10 00:46:02,-44.7,169.15,57.0,76,100,6.13,overcast clouds,0,0
172,Turan,VN,2020-05-10 00:46:02,16.07,108.22,82.4,69,20,2.24,few clouds,0,0
173,Aitape,PG,2020-05-10 00:46:02,-3.14,142.35,87.12,66,8,4.27,clear sky,0,0
174,Kavieng,PG,2020-05-10 00:46:02,-2.57,150.8,86.54,69,69,7.92,broken clouds,0,0
175,Mar Del Plata,AR,2020-05-10 00:45:12,-38.0,-57.56,57.99,87,0,2.24,clear sky,0,0
176,Cayenne,GF,2020-05-10 00:45:53,4.93,-52.33,77.0,100,75,11.95,broken clouds,0,0
177,Dikson,RU,2020-05-10 00:46:03,73.51,80.55,27.23,97,78,20.83,broken clouds,0,0
178,Bobcaygeon,CA,2020-05-10 00:46:03,44.55,-78.54,37.4,51,75,16.11,broken clouds,0,0
179,Kosh-Agach,RU,2020-05-10 00:46:03,50.0,88.67,47.68,44,0,3.24,clear sky,0,0
180,Portland,US,2020-05-10 00:42:05,45.52,-122.68,86.0,22,75,18.34,broken clouds,0,0
181,Verkhnevilyuysk,RU,2020-05-10 00:46:03,63.45,120.32,42.62,54,0,6.98,clear sky,0,0
182,Waddan,LY,2020-05-10 00:46:03,29.16,16.14,73.72,18,97,12.28,overcast clouds,0,0
183,Mahon,ES,2020-05-10 00:46:04,39.89,4.27,64.4,88,35,5.82,scattered clouds,0,0
184,Emerald,AU,2020-05-10 00:46:04,-23.53,148.17,78.01,57,100,5.82,overcast clouds,0,0
185,Falam,MM,2020-05-10 00:46:04,22.92,93.68,69.64,50,0,1.28,clear sky,0,0
186,General Pico,AR,2020-05-10 00:46:04,-35.66,-63.76,55.87,73,0,7.63,clear sky,0,0
187,Port Elizabeth,ZA,2020-05-10 00:41:54,-33.92,25.57,57.2,100,0,5.82,clear sky,0,0
188,Sembe,CG,2020-05-10 00:46:05,1.65,14.58,69.06,95,100,3.06,moderate rain,0,0
189,Severo-Kurilsk,RU,2020-05-10 00:46:05,50.68,156.12,34.27,88,98,16.91,overcast clouds,0,0
190,Katsuura,JP,2020-05-10 00:44:21,35.13,140.3,68.0,88,90,9.17,mist,0,0
191,Lyubech,UA,2020-05-10 00:46:05,51.7,30.66,49.15,81,100,6.2,overcast clouds,0,0
192,Galle,LK,2020-05-10 00:46:05,6.04,80.22,82.67,79,22,2.42,few clouds,0,0
193,Tabou,CI,2020-05-10 00:46:05,4.42,-7.35,80.65,84,100,11.48,overcast clouds,0,0
194,Nadym,RU,2020-05-10 00:46:05,65.53,72.52,37.13,81,89,9.51,light rain,0,0
195,Verkhoyansk,RU,2020-05-10 00:46:06,67.54,133.38,30.51,94,100,2.57,overcast clouds,0,0
196,Aasiaat,GL,2020-05-10 00:46:06,68.71,-52.87,29.03,94,87,5.08,overcast clouds,0,0
197,Amapa,BR,2020-05-10 00:46:06,1.0,-52.0,73.54,98,100,2.35,moderate rain,0,0
198,Hamilton,US,2020-05-10 00:42:45,39.18,-84.53,52.0,34,1,8.05,clear sky,0,0
199,Touros,BR,2020-05-10 00:44:14,-5.2,-35.46,75.2,88,20,3.36,few clouds,0,0
200,Harlingen,US,2020-05-10 00:43:00,26.19,-97.7,75.2,69,75,18.34,broken clouds,0,0
201,Carnarvon,AU,2020-05-10 00:46:06,-24.87,113.63,76.68,38,100,14.07,overcast clouds,0,0
202,Aden,YE,2020-05-10 00:43:51,12.78,45.04,86.49,60,0,9.44,clear sky,0,0
203,North Vernon,US,2020-05-10 00:46:07,39.01,-85.62,53.6,34,1,2.13,clear sky,0,0
204,Russell,US,2020-05-10 00:46:07,32.35,-85.2,66.2,51,1,5.82,clear sky,0,0
205,Basco,PH,2020-05-10 00:46:07,20.45,121.97,83.14,76,75,8.9,broken clouds,0,0
206,Quillota,CL,2020-05-10 00:46:07,-32.88,-71.27,53.6,87,0,6.93,clear sky,0,0
207,Azua,DO,2020-05-10 00:46:07,18.45,-70.73,61.0,1,23,2.35,few clouds,0,0
208,Saint Anthony,US,2020-05-10 00:46:07,45.02,-93.22,46.4,81,90,10.29,moderate rain,0,0
209,Tuatapere,NZ,2020-05-10 00:46:08,-46.13,167.68,61.68,68,100,7.76,overcast clouds,0,0
210,Usinsk,RU,2020-05-10 00:43:16,65.99,57.53,41.99,70,100,7.58,overcast clouds,0,0
211,Northam,GB,2020-05-10 00:46:08,51.03,-4.22,53.01,92,100,1.99,overcast clouds,0,0
212,Nishihara,JP,2020-05-10 00:46:08,26.18,127.76,80.6,78,75,8.05,broken clouds,0,0
213,Fortuna,US,2020-05-10 00:42:07,40.6,-124.16,62.01,82,40,11.41,scattered clouds,0,0
214,Saint Pete Beach,US,2020-05-10 00:46:08,27.73,-82.74,79.0,65,40,10.29,scattered clouds,0,0
215,Half Moon Bay,US,2020-05-10 00:42:19,37.46,-122.43,73.0,82,90,8.05,mist,0,0
216,Ketchikan,US,2020-05-10 00:42:51,55.34,-131.65,78.8,21,1,14.99,clear sky,0,0
217,Maldonado,UY,2020-05-10 00:46:09,-34.67,-54.92,57.99,76,0,5.82,clear sky,0,0
218,Veselynove,UA,2020-05-10 00:46:09,47.36,31.23,47.64,77,0,3.67,clear sky,0,0
219,Hasaki,JP,2020-05-10 00:46:09,35.73,140.83,70.0,100,75,8.05,broken clouds,0,0
220,Kodiak,US,2020-05-10 00:46:09,57.79,-152.41,44.6,93,90,10.29,light rain,0,0
221,Sabang,ID,2020-05-10 00:44:31,5.89,95.32,80.65,82,100,6.71,light rain,0,0
222,Seymchan,RU,2020-05-10 00:46:10,62.88,152.43,35.46,86,100,14.65,overcast clouds,0,0
223,Port Blair,IN,2020-05-10 00:46:10,11.67,92.75,84.11,77,71,3.74,broken clouds,0,0
224,Bani,DO,2020-05-10 00:46:10,18.28,-70.33,82.99,79,65,1.99,broken clouds,0,0
225,Zhigansk,RU,2020-05-10 00:46:10,66.77,123.37,23.94,96,32,11.01,scattered clouds,0,0
226,Ouadda,CF,2020-05-10 00:46:10,8.08,22.4,69.6,74,100,2.53,overcast clouds,0,0
227,Aswan,EG,2020-05-10 00:44:00,24.09,32.91,69.55,32,0,10.25,clear sky,0,0
228,Izumo,JP,2020-05-10 00:46:11,35.37,132.77,66.2,88,75,19.46,broken clouds,0,0
229,Alappuzha,IN,2020-05-10 00:46:11,9.49,76.33,83.3,85,100,6.98,light rain,0,0
230,Pisco,PE,2020-05-10 00:46:11,-13.7,-76.22,66.2,88,1,16.11,clear sky,0,0
231,Gat,IL,2020-05-10 00:46:11,31.61,34.76,64.0,78,28,4.36,scattered clouds,0,0
232,Mecca,SA,2020-05-10 00:46:11,21.43,39.83,82.29,58,79,5.59,broken clouds,0,0
233,Yellowknife,CA,2020-05-10 00:41:22,62.46,-114.35,37.4,44,20,11.41,few clouds,0,0
234,Cairns,AU,2020-05-10 00:41:33,-16.92,145.77,78.8,65,0,11.41,clear sky,0,0
235,Krasnoselkup,RU,2020-05-10 00:46:12,65.7,82.47,34.47,87,34,4.27,scattered clouds,0,0
236,Aktau,KZ,2020-05-10 00:44:45,43.65,51.2,59.0,87,40,6.71,scattered clouds,0,0
237,Port Macquarie,AU,2020-05-10 00:44:57,-31.43,152.92,66.99,59,0,1.01,clear sky,0,0
238,Vanimo,PG,2020-05-10 00:46:12,-2.67,141.3,85.84,71,27,5.88,light rain,0,0
239,Dingle,PH,2020-05-10 00:46:12,11.0,122.67,88.2,60,100,7.87,overcast clouds,0,0
240,Terme,TR,2020-05-10 00:46:12,41.21,36.97,39.2,93,20,4.7,few clouds,0,0
241,Yazman,PK,2020-05-10 00:46:12,29.12,71.74,89.29,24,42,7.58,scattered clouds,0,0
242,Guerrero Negro,MX,2020-05-10 00:46:05,27.98,-114.06,70.88,63,0,16.91,clear sky,0,0
243,Coronon,PH,2020-05-10 00:46:13,6.88,125.45,86.0,79,75,9.17,broken clouds,0,0
244,Dinard,FR,2020-05-10 00:46:13,48.63,-2.06,57.0,100,90,3.36,fog,0,0
245,Dasoguz,TM,2020-05-10 00:46:13,41.84,59.97,62.6,67,0,6.93,clear sky,0,0
246,Kongolo,CD,2020-05-10 00:46:13,-5.38,27.0,69.87,91,100,3.62,overcast clouds,0,0
247,Kununurra,AU,2020-05-10 00:46:13,-15.77,128.73,86.0,33,0,11.41,clear sky,0,0
248,Kavaratti,IN,2020-05-10 00:46:14,10.57,72.64,85.51,71,2,8.05,clear sky,0,0
249,Guanica,PR,2020-05-10 00:46:14,17.97,-66.91,82.0,68,100,3.0,overcast clouds,0,0
250,Wardenburg,DE,2020-05-10 00:46:14,53.07,8.2,55.0,86,63,1.01,broken clouds,0,0
251,Poronaysk,RU,2020-05-10 00:46:14,49.22,143.12,44.91,72,100,8.37,overcast clouds,0,0
252,Havre-Saint-Pierre,CA,2020-05-10 00:46:14,50.23,-63.6,39.2,80,90,4.7,overcast clouds,0,0
253,Chokurdakh,RU,2020-05-10 00:46:14,70.63,147.92,28.11,99,43,6.42,scattered clouds,0,0
254,Tura,IN,2020-05-10 00:46:15,25.52,90.22,79.81,46,0,3.09,clear sky,0,0
255,Lac Du Bonnet,CA,2020-05-10 00:46:15,50.25,-96.06,43.0,41,100,8.99,overcast clouds,0,0
256,Provideniya,RU,2020-05-10 00:46:15,64.38,-173.3,38.7,80,100,35.14,light rain,0,0
257,Pozoblanco,ES,2020-05-10 00:46:15,38.38,-4.85,57.2,100,75,8.05,mist,0,0
258,Rovaniemi,FI,2020-05-10 00:46:15,66.5,25.72,28.4,58,93,2.24,overcast clouds,0,0
259,Sur,OM,2020-05-10 00:46:15,22.57,59.53,82.45,52,0,5.21,clear sky,0,0
260,Hofn,IS,2020-05-10 00:46:15,64.25,-15.21,30.92,79,0,5.32,clear sky,0,0
261,Sola,VU,2020-05-10 00:46:16,-13.88,167.55,87.8,66,75,13.85,broken clouds,0,0
262,Padang,ID,2020-05-10 00:46:16,-0.95,100.35,82.89,66,87,2.51,overcast clouds,0,0
263,Puerto Ayora,EC,2020-05-10 00:46:16,-0.74,-90.35,77.0,93,8,6.17,clear sky,0,0
264,Zyryanka,RU,2020-05-10 00:46:16,65.75,150.85,32.81,98,100,21.27,light snow,0,0
265,Gainesville,US,2020-05-10 00:46:16,29.65,-82.32,69.8,56,1,9.17,clear sky,0,0
266,Port Hawkesbury,CA,2020-05-10 00:46:16,45.62,-61.35,37.99,86,90,17.22,overcast clouds,0,0
267,San Felipe,VE,2020-05-10 00:46:17,10.34,-68.74,73.15,86,19,4.52,few clouds,0,0
268,Bubaque,GW,2020-05-10 00:46:17,11.28,-15.83,77.94,75,100,11.43,overcast clouds,0,0
269,Carlsbad,US,2020-05-10 00:43:53,33.16,-117.35,73.99,73,1,6.93,clear sky,0,0
270,Havoysund,NO,2020-05-10 00:46:17,71.0,24.66,30.2,68,20,14.99,few clouds,0,0
271,Mombetsu,JP,2020-05-10 00:46:17,44.35,143.35,53.6,87,75,3.36,light intensity shower rain,0,0
272,Bridgetown,BB,2020-05-10 00:43:31,13.1,-59.62,80.6,65,40,20.8,scattered clouds,0,0
273,Masvingo,ZW,2020-05-10 00:46:17,-20.06,30.83,51.87,96,11,4.74,few clouds,0,0
274,Lakselv,NO,2020-05-10 00:46:18,70.05,24.97,26.6,68,4,14.99,clear sky,0,0
275,Tazovskiy,RU,2020-05-10 00:46:18,67.47,78.7,30.09,97,90,8.43,overcast clouds,0,0
276,Logrono,ES,2020-05-10 00:46:18,42.47,-2.45,59.0,93,49,4.7,scattered clouds,0,0
277,Troitskoye,RU,2020-05-10 00:46:18,52.98,84.68,57.54,37,0,12.5,clear sky,0,0
278,Moose Factory,CA,2020-05-10 00:46:18,51.26,-80.61,32.0,97,90,8.05,light snow,0,0
279,Pakruojis,LT,2020-05-10 00:46:18,55.97,23.87,42.8,70,0,3.36,clear sky,0,0
280,Dudinka,RU,2020-05-10 00:46:19,69.41,86.18,30.2,80,75,15.66,light snow,0,0
281,Atar,MR,2020-05-10 00:46:19,20.52,-13.05,84.07,14,6,9.66,clear sky,0,0
282,Huntsville,US,2020-05-10 00:42:52,34.73,-86.59,60.8,59,1,4.7,clear sky,0,0
283,San Patricio,MX,2020-05-10 00:46:19,19.22,-104.7,82.4,78,20,13.87,few clouds,0,0
284,Wagrowiec,PL,2020-05-10 00:46:19,52.81,17.2,55.0,76,0,6.93,clear sky,0,0
285,Lagoa,PT,2020-05-10 00:44:41,39.05,-27.98,61.74,82,93,30.04,overcast clouds,0,0
286,Taltal,CL,2020-05-10 00:46:20,-25.4,-70.48,60.21,75,93,4.74,overcast clouds,0,0
287,Evensk,RU,2020-05-10 00:46:20,61.95,159.23,36.3,94,100,17.25,overcast clouds,0,0
288,Yarim,YE,2020-05-10 00:46:20,14.3,44.38,55.85,58,0,5.53,clear sky,0,0
289,Zwedru,LR,2020-05-10 00:46:20,6.07,-8.13,74.26,96,100,4.68,overcast clouds,0,0
290,Chumikan,RU,2020-05-10 00:46:20,54.72,135.31,42.96,63,100,6.24,overcast clouds,0,0
291,Vila Franca Do Campo,PT,2020-05-10 00:46:20,37.72,-25.43,62.6,93,75,14.99,broken clouds,0,0
292,Pimentel,PE,2020-05-10 00:46:21,-6.84,-79.93,73.4,69,0,18.34,clear sky,0,0
293,Marzuq,YE,2020-05-10 00:46:21,14.4,46.47,75.63,24,81,4.54,broken clouds,0,0
294,Los Llanos De Aridane,ES,2020-05-10 00:46:21,28.66,-17.92,68.0,72,8,14.99,clear sky,0,0
295,Hammerfest,NO,2020-05-10 00:46:21,70.66,23.68,30.2,68,18,14.99,few clouds,0,0
296,Linxia,CN,2020-05-10 00:46:21,35.6,103.21,54.03,42,0,1.57,clear sky,0,0
297,Talnakh,RU,2020-05-10 00:46:21,69.49,88.4,30.2,80,75,15.66,light snow,0,0
298,Buraydah,SA,2020-05-10 00:46:21,26.33,43.98,80.6,61,75,9.17,dust,0,0
299,Glasgow,GB,2020-05-10 00:44:36,55.87,-4.26,48.2,93,90,16.11,light rain,0,0
300,Antofagasta,CL,2020-05-10 00:42:23,-23.65,-70.4,60.8,77,90,6.93,overcast clouds,0,0
301,Husavik,IS,2020-05-10 00:46:22,66.04,-17.34,23.0,79,0,6.93,clear sky,0,0
302,Bhan,PK,2020-05-10 00:46:22,26.56,67.72,84.56,45,20,5.26,few clouds,0,0
303,Arrecife,ES,2020-05-10 00:46:22,28.96,-13.55,68.0,68,1,11.41,clear sky,0,0
304,Arraial Do Cabo,BR,2020-05-10 00:42:11,-22.97,-42.03,71.58,66,0,13.27,clear sky,0,0
305,Nerchinskiy Zavod,RU,2020-05-10 00:46:23,51.31,119.61,47.79,50,0,11.7,clear sky,0,0
306,Coquimbo,CL,2020-05-10 00:44:30,-29.95,-71.34,53.6,87,0,3.36,clear sky,0,0
307,Diu,IN,2020-05-10 00:46:23,20.71,70.98,77.72,87,0,9.57,clear sky,0,0
308,Taldan,RU,2020-05-10 00:46:23,53.67,124.8,47.77,46,44,9.26,scattered clouds,0,0
309,Karpathos,GR,2020-05-10 00:46:23,35.51,27.21,62.6,82,0,26.4,clear sky,0,0
310,Coos Bay,US,2020-05-10 00:46:23,43.37,-124.22,68.0,82,1,8.05,clear sky,0,0
311,Kindu,CD,2020-05-10 00:46:23,-2.95,25.95,70.3,98,100,1.01,overcast clouds,0,0
312,Kieta,PG,2020-05-10 00:46:24,-6.22,155.63,87.46,66,75,8.05,broken clouds,0,0
313,Aksu,CN,2020-05-10 00:46:24,41.12,80.26,68.83,33,93,1.41,overcast clouds,0,0
314,Torbay,CA,2020-05-10 00:42:41,47.67,-52.73,48.0,93,90,31.09,light rain,0,0
315,Belomorsk,RU,2020-05-10 00:46:24,64.52,34.77,33.69,92,3,7.36,clear sky,0,0
316,Fort-Shevchenko,KZ,2020-05-10 00:46:24,44.51,50.26,58.46,77,100,7.43,overcast clouds,0,0
317,Bathsheba,BB,2020-05-10 00:42:04,13.22,-59.52,80.6,65,40,20.8,scattered clouds,0,0
318,Krasnogorsk,RU,2020-05-10 00:46:24,55.82,37.32,55.0,58,100,6.71,overcast clouds,0,0
319,Wajir,KE,2020-05-10 00:46:25,1.75,40.06,76.23,81,100,13.73,overcast clouds,0,0
320,Kisangani,CD,2020-05-10 00:41:54,0.52,25.2,69.1,98,47,0.49,scattered clouds,0,0
321,Balkanabat,TM,2020-05-10 00:46:25,39.51,54.37,73.87,39,0,11.92,clear sky,0,0
322,Sao Joao De Pirabas,BR,2020-05-10 00:46:25,-0.77,-47.18,76.98,91,100,4.32,light rain,0,0
323,Dauriya,RU,2020-05-10 00:46:25,49.93,116.87,49.33,39,0,22.68,clear sky,0,0
324,Ocean City,US,2020-05-10 00:46:26,39.28,-74.57,46.4,36,1,13.87,clear sky,0,0
325,Madanapalle,IN,2020-05-10 00:46:26,13.55,78.5,73.76,83,0,5.97,clear sky,0,0
326,Rebrikha,RU,2020-05-10 00:46:26,53.07,82.34,57.61,49,0,13.18,clear sky,0,0
327,Dharchula,IN,2020-05-10 00:46:26,29.85,80.53,61.97,52,36,4.5,scattered clouds,0,0
328,Lompoc,US,2020-05-10 00:46:26,34.64,-120.46,64.99,82,90,5.82,overcast clouds,0,0
329,Klupci,RS,2020-05-10 00:46:26,44.53,19.25,55.0,74,0,1.01,clear sky,0,0
330,Yeppoon,AU,2020-05-10 00:46:26,-23.13,150.73,77.0,61,95,5.82,overcast clouds,0,0
331,Ballina,AU,2020-05-10 00:46:27,-28.87,153.57,72.0,68,0,10.29,clear sky,0,0
332,Souillac,MU,2020-05-10 00:43:41,-20.52,57.52,73.4,83,40,8.05,shower rain,0,0
333,Acapulco,MX,2020-05-10 00:43:59,16.86,-99.89,86.0,62,5,9.17,clear sky,0,0
334,Portel,BR,2020-05-10 00:46:27,-1.94,-50.82,75.9,96,100,3.2,overcast clouds,0,0
335,Nouadhibou,MR,2020-05-10 00:46:27,20.93,-17.03,67.15,79,100,22.59,overcast clouds,0,0
336,Magrath,CA,2020-05-10 00:46:27,49.42,-112.87,53.01,52,75,11.41,broken clouds,0,0
337,Terrace,CA,2020-05-10 00:46:28,54.52,-128.6,77.0,30,75,6.93,broken clouds,0,0
338,Terenos,BR,2020-05-10 00:46:28,-20.44,-54.86,62.6,63,0,9.17,clear sky,0,0
339,Kon Tum,VN,2020-05-10 00:46:28,14.35,108.0,83.89,62,44,0.92,scattered clouds,0,0
340,Piracanjuba,BR,2020-05-10 00:43:04,-17.3,-49.02,61.45,94,0,6.96,clear sky,0,0
341,Geraldton,AU,2020-05-10 00:46:28,-28.77,114.6,60.8,48,39,11.41,scattered clouds,0,0
342,Darnah,LY,2020-05-10 00:46:29,32.77,22.64,61.3,61,0,4.83,clear sky,0,0
343,Inta,RU,2020-05-10 00:46:29,66.03,60.17,41.63,94,100,6.87,moderate rain,0,0
344,Anadyr,RU,2020-05-10 00:46:29,64.75,177.48,33.8,95,90,64.87,light rain,0,0
345,Faya,SA,2020-05-10 00:44:59,18.39,42.45,66.2,68,100,1.88,overcast clouds,0,0
346,Reforma,MX,2020-05-10 00:46:29,18.1,-91.02,78.39,85,100,8.19,heavy intensity rain,0,0
347,Isangel,VU,2020-05-10 00:46:29,-19.55,169.27,84.2,62,75,5.82,broken clouds,0,0
348,Padre Paraiso,BR,2020-05-10 00:46:29,-17.07,-41.48,57.52,95,74,7.05,broken clouds,0,0
349,Alto Araguaia,BR,2020-05-10 00:46:30,-17.31,-53.22,65.73,84,0,3.62,clear sky,0,0
350,Safaga,EG,2020-05-10 00:46:30,26.73,33.94,71.6,35,0,8.05,clear sky,0,0
351,Gidam,IN,2020-05-10 00:46:30,18.98,81.4,81.84,46,0,2.15,clear sky,0,0
352,High Level,CA,2020-05-10 00:46:30,58.52,-117.14,48.2,42,90,5.82,overcast clouds,0,0
353,Acari,PE,2020-05-10 00:46:30,-15.43,-74.62,71.67,65,57,3.67,broken clouds,0,0
354,San Rafael,AR,2020-05-10 00:46:30,-34.62,-68.33,62.35,42,0,7.81,clear sky,0,0
355,Cabra,ES,2020-05-10 00:46:31,37.47,-4.44,57.99,78,26,1.01,light rain,0,0
356,Luena,AO,2020-05-10 00:46:31,-11.78,19.92,59.79,74,10,5.37,clear sky,0,0
357,Kumluca,TR,2020-05-10 00:46:31,36.37,30.29,66.61,40,0,4.81,clear sky,0,0
358,Biscarrosse,FR,2020-05-10 00:46:31,44.39,-1.17,60.8,93,37,3.36,light rain,0,0
359,Grindavik,IS,2020-05-10 00:46:31,63.84,-22.43,37.4,55,0,3.36,clear sky,0,0
360,Lahaina,US,2020-05-10 00:46:32,20.88,-156.68,80.6,61,40,19.46,scattered clouds,0,0
361,Lerwick,GB,2020-05-10 00:44:40,60.15,-1.15,35.6,64,0,23.04,clear sky,0,0
362,Grand Bank,CA,2020-05-10 00:46:32,47.1,-55.77,44.58,95,100,29.37,moderate rain,0,0
363,Log,RU,2020-05-10 00:46:32,49.48,43.86,46.62,91,0,9.06,clear sky,0,0
364,Port Lincoln,AU,2020-05-10 00:46:32,-34.73,135.87,59.97,57,0,9.75,clear sky,0,0
365,Beringovskiy,RU,2020-05-10 00:46:32,63.05,179.32,34.23,94,100,29.21,overcast clouds,0,0
366,Quatre Cocos,MU,2020-05-10 00:46:32,-20.21,57.76,73.4,83,40,8.05,shower rain,0,0
367,Port Keats,AU,2020-05-10 00:46:33,-14.25,129.55,84.7,49,0,9.06,clear sky,0,0
368,Conde,BR,2020-05-10 00:46:33,-7.26,-34.91,75.2,88,20,4.7,few clouds,0,0
369,Buenaventura,CO,2020-05-10 00:46:33,3.88,-77.03,78.53,91,74,1.95,light rain,0,0
370,Strezhevoy,RU,2020-05-10 00:46:33,60.73,77.59,55.4,66,0,4.47,clear sky,0,0
371,Aykhal,RU,2020-05-10 00:46:33,66.0,111.5,32.0,94,90,11.18,shower snow,0,0
372,Wagar,SD,2020-05-10 00:46:33,16.15,36.2,83.17,47,100,3.87,overcast clouds,0,0
373,Yavatmal,IN,2020-05-10 00:46:34,20.4,78.13,87.06,29,72,8.79,broken clouds,0,0
374,Zalantun,CN,2020-05-10 00:46:34,48.0,122.72,57.94,49,100,10.2,overcast clouds,0,0
375,Nagato,JP,2020-05-10 00:46:34,34.38,131.2,64.0,100,75,10.29,broken clouds,0,0
376,Salmo,CA,2020-05-10 00:46:34,49.2,-117.27,62.19,41,44,4.18,scattered clouds,0,0
377,Yagodnoye,RU,2020-05-10 00:46:34,62.55,149.67,29.66,96,100,9.48,light snow,0,0
378,Teguldet,RU,2020-05-10 00:46:35,57.31,88.17,62.22,67,82,4.0,broken clouds,0,0
379,Taoudenni,ML,2020-05-10 00:46:35,22.68,-3.98,94.39,11,18,10.85,few clouds,0,0
380,Meadow Lake,US,2020-05-10 00:46:35,34.8,-106.54,80.6,8,40,10.29,scattered clouds,0,0
381,Muros,ES,2020-05-10 00:43:05,42.78,-9.06,55.0,93,47,7.23,scattered clouds,0,0
382,Gorom-Gorom,BF,2020-05-10 00:46:35,14.44,-0.24,90.21,25,0,5.32,clear sky,0,0
383,Bucak,TR,2020-05-10 00:46:35,37.46,30.59,64.4,76,0,8.05,clear sky,0,0
384,Sao Felix Do Xingu,BR,2020-05-10 00:46:35,-6.64,-51.99,73.83,89,11,2.13,few clouds,0,0
385,Mujiayingzi,CN,2020-05-10 00:46:36,42.12,118.78,58.08,33,0,30.24,clear sky,0,0
386,Novopokrovka,UA,2020-05-10 00:46:36,49.84,36.55,45.3,90,92,6.98,overcast clouds,0,0
387,Gao,ML,2020-05-10 00:46:36,16.64,1.64,86.27,11,0,8.41,clear sky,0,0
388,Carutapera,BR,2020-05-10 00:46:36,-1.2,-46.02,76.28,93,100,4.97,light rain,0,0
389,Oistins,BB,2020-05-10 00:41:56,13.07,-59.53,80.6,65,40,20.8,scattered clouds,0,0
390,Batemans Bay,AU,2020-05-10 00:46:36,-35.72,150.18,57.99,50,0,1.99,clear sky,0,0
391,Nhulunbuy,AU,2020-05-10 00:46:36,-12.23,136.77,84.2,62,75,18.34,broken clouds,0,0
392,Fort Nelson,CA,2020-05-10 00:46:37,58.81,-122.7,53.6,30,40,10.29,scattered clouds,0,0
393,Ampanihy,MG,2020-05-10 00:46:37,-24.7,44.75,63.32,88,0,10.27,clear sky,0,0
394,Port Hardy,CA,2020-05-10 00:46:37,50.7,-127.42,66.2,52,40,4.94,scattered clouds,0,0
395,Tuscaloosa,US,2020-05-10 00:46:37,33.21,-87.57,64.4,34,1,8.05,clear sky,0,0
396,Constantine,DZ,2020-05-10 00:42:15,36.37,6.61,59.0,87,20,3.36,few clouds,0,0
397,Aklavik,CA,2020-05-10 00:46:37,68.22,-135.01,44.6,48,40,9.17,scattered clouds,0,0
398,Julio De Castilhos,BR,2020-05-10 00:46:37,-29.23,-53.68,52.9,76,0,5.21,clear sky,0,0
399,Rio Gallegos,AR,2020-05-10 00:46:38,-51.62,-69.22,39.2,100,90,1.12,fog,0,0
400,Andenes,NO,2020-05-10 00:46:38,69.31,16.12,28.4,79,37,10.29,light snow,0,0
401,Campbell River,CA,2020-05-10 00:46:38,50.02,-125.24,75.2,29,75,4.7,broken clouds,0,0
402,Vila Velha,BR,2020-05-10 00:46:38,-20.33,-40.29,66.2,88,90,4.7,overcast clouds,0,0
403,Kismayo,SO,2020-05-10 00:46:38,-0.36,42.55,79.23,86,100,11.43,light rain,0,0
404,Iqaluit,CA,2020-05-10 00:46:38,63.75,-68.51,35.6,80,75,10.29,light snow,0,0
405,Hobe Sound,US,2020-05-10 00:46:38,27.06,-80.14,78.01,64,89,3.0,overcast clouds,0,0
406,Margate,GB,2020-05-10 00:46:39,51.38,1.39,57.0,75,100,3.0,overcast clouds,0,0
407,Nouna,BF,2020-05-10 00:46:39,12.73,-3.87,92.19,34,46,9.31,scattered clouds,0,0
408,General Roca,AR,2020-05-10 00:46:39,-39.03,-67.58,69.8,22,40,12.75,scattered clouds,0,0
409,Biharamulo,TZ,2020-05-10 00:46:39,-2.63,31.31,60.33,100,32,3.49,scattered clouds,0,0
410,Am Timan,TD,2020-05-10 00:46:39,11.03,20.28,83.71,47,0,5.66,clear sky,0,0
411,Launceston,AU,2020-05-10 00:46:39,-41.45,147.17,50.0,81,0,5.82,clear sky,0,0
412,Zhangjiakou,CN,2020-05-10 00:46:40,40.81,114.88,56.41,34,5,20.62,clear sky,0,0
413,Port-Gentil,GA,2020-05-10 00:46:40,-0.72,8.78,82.09,77,18,7.54,few clouds,0,0
414,Thinadhoo,MV,2020-05-10 00:46:40,0.53,72.93,84.67,77,100,13.67,light rain,0,0
415,Mareeba,AU,2020-05-10 00:46:40,-17.0,145.43,77.0,68,22,5.01,few clouds,0,0
416,Cepu,ID,2020-05-10 00:46:40,-7.15,111.59,77.63,82,76,1.57,broken clouds,0,0
417,Zabol,AF,2020-05-10 00:46:40,32.25,67.25,60.15,31,0,6.78,clear sky,0,0
418,Mount Gambier,AU,2020-05-10 00:42:37,-37.83,140.77,53.6,81,95,9.17,light rain,0,0
419,Teya,RU,2020-05-10 00:46:41,60.38,92.63,56.71,70,36,8.3,scattered clouds,0,0
420,Mandan,US,2020-05-10 00:46:41,46.83,-100.89,43.0,56,20,17.22,few clouds,0,0
421,Sulangan,PH,2020-05-10 00:46:41,11.14,123.72,84.06,76,100,6.69,overcast clouds,0,0
422,Zakupne,UA,2020-05-10 00:46:41,49.12,26.34,51.01,58,99,1.01,overcast clouds,0,0
423,Naze,JP,2020-05-10 00:46:41,28.37,129.48,75.2,94,75,9.17,light intensity shower rain,0,0
424,Biloela,AU,2020-05-10 00:46:41,-24.42,150.5,78.12,46,7,6.78,clear sky,0,0
425,Vanavara,RU,2020-05-10 00:46:42,60.34,102.28,56.98,58,47,19.35,scattered clouds,0,0
426,Narsaq,GL,2020-05-10 00:46:42,60.92,-46.05,50.0,23,0,23.04,clear sky,0,0
427,Menongue,AO,2020-05-10 00:46:42,-14.66,17.69,63.68,62,100,3.38,overcast clouds,0,0
428,Bystryy Istok,RU,2020-05-10 00:46:42,52.37,84.39,54.93,51,0,8.5,clear sky,0,0
429,Saint-Leu,RE,2020-05-10 00:46:42,-21.15,55.28,69.8,73,0,6.93,clear sky,0,0
430,Zhangye,CN,2020-05-10 00:46:43,38.93,100.45,50.23,41,8,17.56,clear sky,0,0
431,Takoradi,GH,2020-05-10 00:46:43,4.88,-1.76,80.51,88,97,8.99,overcast clouds,0,0
432,Veliki Trnovac,RS,2020-05-10 00:46:43,42.48,21.74,48.99,76,0,1.36,clear sky,0,0
433,Keetmanshoop,NA,2020-05-10 00:46:43,-26.58,18.13,69.8,28,0,8.05,clear sky,0,0
434,Khalkhal,IR,2020-05-10 00:46:43,37.62,48.53,49.32,78,10,6.78,light rain,0,0
435,Yura,PE,2020-05-10 00:46:39,-16.25,-71.68,60.76,52,100,0.89,overcast clouds,0,0
436,Camacha,PT,2020-05-10 00:46:44,33.08,-16.33,64.4,93,75,16.11,broken clouds,0,0
437,Borogontsy,RU,2020-05-10 00:46:44,62.67,131.17,35.19,76,100,4.68,overcast clouds,0,0
438,Cruzeiro Do Oeste,BR,2020-05-10 00:46:44,-23.79,-53.07,59.02,84,0,6.69,clear sky,0,0
439,Tezu,IN,2020-05-10 00:46:44,27.92,96.17,82.45,37,0,0.74,clear sky,0,0
440,Omsukchan,RU,2020-05-10 00:46:44,62.53,155.8,32.11,97,100,15.84,snow,0,0
441,Revda,RU,2020-05-10 00:46:45,56.8,59.93,48.2,76,94,4.47,overcast clouds,0,0
442,Morondava,MG,2020-05-10 00:46:45,-20.28,44.28,72.77,69,0,9.35,clear sky,0,0
443,Nuevo Ideal,MX,2020-05-10 00:46:45,24.89,-105.07,69.44,31,34,7.72,scattered clouds,0,0
444,Manzanillo,CU,2020-05-10 00:46:45,20.34,-77.12,80.31,78,100,5.26,overcast clouds,0,0
445,Bosaso,SO,2020-05-10 00:44:27,11.28,49.18,86.31,61,4,4.0,clear sky,0,0
446,Buluang,PH,2020-05-10 00:46:45,13.31,123.34,90.64,55,100,0.27,overcast clouds,0,0
447,Van,TR,2020-05-10 00:46:45,38.49,43.38,48.2,76,75,10.29,broken clouds,0,0
448,Poum,NC,2020-05-10 00:46:46,-20.23,164.02,76.57,66,0,6.73,clear sky,0,0
449,Maues,BR,2020-05-10 00:46:46,-3.38,-57.72,75.27,95,91,1.5,overcast clouds,0,0
450,Amahai,ID,2020-05-10 00:46:46,-3.33,128.92,83.82,75,17,6.2,few clouds,0,0
451,Dunedin,NZ,2020-05-10 00:46:36,-45.87,170.5,55.0,82,98,1.99,overcast clouds,0,0
452,Ucluelet,CA,2020-05-10 00:46:46,48.93,-125.55,68.0,45,20,8.05,few clouds,0,0
453,Arman,RU,2020-05-10 00:46:46,59.7,150.17,43.9,58,100,11.52,overcast clouds,0,0
454,Berlevag,NO,2020-05-10 00:46:46,70.86,29.09,29.98,90,62,7.94,broken clouds,0,0
455,Porto Seguro,BR,2020-05-10 00:46:47,-16.45,-39.06,69.8,77,40,5.82,scattered clouds,0,0
456,Nieuw Amsterdam,SR,2020-05-10 00:46:47,5.88,-55.08,79.0,90,25,1.01,scattered clouds,0,0
457,Bonthe,SL,2020-05-10 00:46:47,7.53,-12.51,80.11,86,100,7.29,light rain,0,0
458,Birao,CF,2020-05-10 00:46:47,10.28,22.79,81.19,48,100,4.47,overcast clouds,0,0
459,Pilot Butte,CA,2020-05-10 00:46:47,50.47,-104.42,43.0,41,75,11.41,broken clouds,0,0
460,Zapolyarnyy,RU,2020-05-10 00:46:47,69.42,30.81,26.6,92,99,5.82,snow,0,0
461,Warwick,US,2020-05-10 00:43:06,41.7,-71.42,42.8,33,75,13.87,shower rain,0,0
462,Murgab,TM,2020-05-10 00:46:48,37.5,61.97,64.4,68,2,4.7,clear sky,0,0
463,Watsa,CD,2020-05-10 00:46:48,3.04,29.54,66.04,100,100,3.0,moderate rain,0,0
464,Itarema,BR,2020-05-10 00:46:48,-2.92,-39.92,77.29,85,100,6.55,overcast clouds,0,0
465,Tau,NO,2020-05-10 00:46:48,59.07,5.9,41.0,93,90,3.36,light rain,0,0
466,Santa Maria,BR,2020-05-10 00:46:48,-29.68,-53.81,57.31,70,0,4.5,clear sky,0,0
467,San Matias,BO,2020-05-10 00:46:48,-16.37,-58.4,71.19,81,0,4.59,clear sky,0,0
468,Clonakilty,IE,2020-05-10 00:46:49,51.62,-8.87,55.4,82,20,6.93,few clouds,0,0
469,Te Anau,NZ,2020-05-10 00:44:04,-45.42,167.72,58.71,73,93,6.26,overcast clouds,0,0
470,Cuddapah,IN,2020-05-10 00:44:22,14.47,78.82,82.83,66,0,4.7,clear sky,0,0
471,Palmer,US,2020-05-10 00:42:59,42.16,-72.33,37.4,44,1,23.04,clear sky,0,0
472,Lubango,AO,2020-05-10 00:46:49,-14.92,13.49,58.75,53,100,2.42,overcast clouds,0,0
473,Griffith,US,2020-05-10 00:46:49,41.53,-87.42,55.0,34,1,6.46,clear sky,0,0
474,Ferme-Neuve,CA,2020-05-10 00:46:50,46.7,-75.45,31.98,82,92,6.49,overcast clouds,0,0
475,Ponta Delgada,PT,2020-05-10 00:46:50,37.73,-25.67,62.6,93,75,14.99,broken clouds,0,0
476,Jiujiang,CN,2020-05-10 00:46:50,29.73,115.98,69.03,72,0,10.04,clear sky,0,0
477,Korla,CN,2020-05-10 00:46:50,41.76,86.15,64.65,26,10,18.12,clear sky,0,0
478,Dunhua,CN,2020-05-10 00:46:50,43.37,128.24,60.17,66,98,7.09,overcast clouds,0,0
479,Samsun,TR,2020-05-10 00:46:50,41.25,36.33,39.2,93,20,4.7,few clouds,0,0
480,Moron,AR,2020-05-10 00:41:59,-34.65,-58.62,64.0,62,0,5.01,clear sky,0,0
481,Dryden,CA,2020-05-10 00:46:51,49.78,-92.75,41.0,48,90,10.29,overcast clouds,0,0
482,Olafsvik,IS,2020-05-10 00:46:51,64.89,-23.71,37.49,71,0,6.31,clear sky,0,0
483,Saint-Joseph,RE,2020-05-10 00:46:51,-21.37,55.62,69.8,73,31,6.93,scattered clouds,0,0
484,La Ronge,CA,2020-05-10 00:46:52,55.1,-105.28,46.4,28,20,6.93,few clouds,0,0
485,Sokone,SN,2020-05-10 00:46:52,13.88,-16.37,78.8,69,52,6.93,broken clouds,0,0
486,Pangnirtung,CA,2020-05-10 00:46:52,66.15,-65.71,25.59,92,100,9.86,light snow,0,0
487,Burnie,AU,2020-05-10 00:45:07,-41.07,145.92,55.99,54,79,5.01,broken clouds,0,0
488,Coria,ES,2020-05-10 00:46:52,39.99,-6.54,51.01,92,0,1.01,clear sky,0,0
489,Vestmannaeyjar,IS,2020-05-10 00:42:47,63.44,-20.27,37.08,85,65,10.71,broken clouds,0,0
490,Henties Bay,NA,2020-05-10 00:46:52,-22.12,14.28,70.11,49,0,7.94,clear sky,0,0
491,Kawalu,ID,2020-05-10 00:46:53,-7.38,108.21,79.99,75,47,2.46,scattered clouds,0,0
492,Monrovia,LR,2020-05-10 00:46:53,6.3,-10.8,78.8,94,75,9.46,thunderstorm,0,0
493,Jagtial,IN,2020-05-10 00:46:53,18.8,78.93,87.08,36,21,7.52,few clouds,0,0
494,Yatou,CN,2020-05-10 00:46:53,37.15,122.38,61.74,78,86,8.72,overcast clouds,0,0
495,Ittiri,IT,2020-05-10 00:46:53,40.59,8.57,62.01,93,100,2.24,overcast clouds,0,0
496,Adrar,MR,2020-05-10 00:46:53,20.5,-10.07,86.22,13,5,12.17,clear sky,0,0
497,Skibbereen,IE,2020-05-10 00:46:53,51.55,-9.27,55.4,82,20,6.93,few clouds,0,0
498,Maniitsoq,GL,2020-05-10 00:42:04,65.42,-52.9,39.24,73,97,8.72,overcast clouds,0,0
499,Beira,MZ,2020-05-10 00:46:54,-19.84,34.84,71.6,83,20,8.05,few clouds,0,0
500,Beaverlodge,CA,2020-05-10 00:45:05,55.22,-119.44,51.8,34,20,17.22,few clouds,0,0
501,Kamaishi,JP,2020-05-10 00:46:54,39.27,141.88,57.2,93,75,3.36,light rain,0,0
502,San Roque,ES,2020-05-10 00:46:54,36.21,-5.38,62.6,77,6,26.4,clear sky,0,0
503,Corn Island,NI,2020-05-10 00:46:54,12.17,-83.04,82.74,83,100,14.47,overcast clouds,0,0
504,Bisho,ZA,2020-05-10 00:46:54,-32.85,27.44,58.05,38,0,5.12,clear sky,0,0
505,Port Hedland,AU,2020-05-10 00:44:30,-20.32,118.57,82.4,32,90,16.11,overcast clouds,0,0
506,Sechura,PE,2020-05-10 00:46:55,-5.56,-80.82,73.35,74,0,17.29,clear sky,0,0
507,Vermilion,US,2020-05-10 00:46:55,40.17,-87.75,55.4,30,1,8.05,clear sky,0,0
508,Joshimath,IN,2020-05-10 00:46:55,30.57,79.57,54.81,40,50,5.1,scattered clouds,0,0
509,Raymond,US,2020-05-10 00:46:55,43.9,-70.47,35.01,63,63,1.01,broken clouds,0,0
510,Buala,SB,2020-05-10 00:46:55,-8.14,159.59,86.58,70,29,6.62,scattered clouds,0,0
511,Mayo,US,2020-05-10 00:41:58,38.89,-76.51,46.4,49,1,10.29,clear sky,0,0
512,Kedrovyy,RU,2020-05-10 00:46:56,56.17,91.82,60.8,38,84,2.24,broken clouds,0,0
513,Farim,GW,2020-05-10 00:46:56,12.48,-15.22,84.2,70,15,4.7,few clouds,0,0
514,San Angelo,US,2020-05-10 00:45:04,31.46,-100.44,79.0,28,0,1.01,clear sky,0,0
515,Qaqortoq,GL,2020-05-10 00:46:56,60.72,-46.03,50.0,23,0,23.04,clear sky,0,0
516,Viraganur,IN,2020-05-10 00:46:56,11.48,78.73,81.3,78,96,2.08,overcast clouds,0,0
517,Safranbolu,TR,2020-05-10 00:46:40,41.25,32.69,41.9,73,0,1.66,clear sky,0,0
518,Gura Teghii,RO,2020-05-10 00:46:57,45.48,26.42,41.0,72,10,7.0,clear sky,0,0
519,Malaya Vishera,RU,2020-05-10 00:46:57,58.85,32.22,36.34,81,98,3.15,overcast clouds,0,0
520,Ambilobe,MG,2020-05-10 00:46:57,-13.2,49.05,70.92,87,0,4.12,clear sky,0,0
521,Gorontalo,ID,2020-05-10 00:44:11,0.54,123.06,86.79,65,67,3.67,broken clouds,0,0
522,Brae,GB,2020-05-10 00:46:57,60.4,-1.35,35.6,59,1,23.04,clear sky,0,0
523,Eureka,US,2020-05-10 00:45:33,40.8,-124.16,64.99,68,71,5.01,broken clouds,0,0
524,Bara,NG,2020-05-10 00:46:57,10.37,10.73,84.02,53,47,6.67,scattered clouds,0,0
525,Bayburt,TR,2020-05-10 00:46:58,40.26,40.23,36.23,91,100,2.21,snow,0,0
526,Mossendjo,CG,2020-05-10 00:46:58,-2.95,12.73,71.69,99,100,1.59,moderate rain,0,0
527,Hirara,JP,2020-05-10 00:46:58,24.8,125.28,82.4,83,75,10.29,broken clouds,0,0
528,Eyl,SO,2020-05-10 00:46:58,7.98,49.82,82.29,76,73,4.68,broken clouds,0,0
529,Juneau,US,2020-05-10 00:46:58,58.3,-134.42,69.8,30,75,11.41,broken clouds,0,0
530,Manadhoo,MV,2020-05-10 00:46:59,5.77,73.38,82.71,77,100,11.74,overcast clouds,0,0
531,Egvekinot,RU,2020-05-10 00:46:59,66.32,-179.17,32.92,99,100,23.2,light rain,0,0
532,Cabedelo,BR,2020-05-10 00:46:59,-6.98,-34.83,75.2,88,20,4.7,few clouds,0,0
533,Mandalgovi,MN,2020-05-10 00:46:59,45.76,106.27,38.26,64,0,19.28,clear sky,0,0
534,Fukue,JP,2020-05-10 00:46:59,32.69,128.84,66.2,77,40,4.7,scattered clouds,0,0
535,Devils Lake,US,2020-05-10 00:43:04,48.11,-98.87,39.2,55,1,17.22,clear sky,0,0
536,Ivybridge,GB,2020-05-10 00:47:00,50.39,-3.92,55.99,61,99,1.99,overcast clouds,0,0
537,Lardos,GR,2020-05-10 00:47:00,36.09,28.02,66.2,72,0,11.41,clear sky,0,0
538,Phangnga,TH,2020-05-10 00:47:00,8.45,98.53,78.8,100,40,4.7,scattered clouds,0,0
539,Manjeshwar,IN,2020-05-10 00:47:00,12.72,74.89,82.4,78,40,4.7,scattered clouds,0,0
540,Meulaboh,ID,2020-05-10 00:43:29,4.14,96.13,78.58,89,100,5.1,overcast clouds,0,0
541,Romny,UA,2020-05-10 00:47:00,50.75,33.47,45.25,82,100,6.42,overcast clouds,0,0
542,Guaraniacu,BR,2020-05-10 00:47:00,-25.1,-52.88,51.91,95,0,3.02,clear sky,0,0
543,Cockburn Town,TC,2020-05-10 00:47:01,21.46,-71.14,80.82,86,0,14.2,clear sky,0,0
544,Boulder City,US,2020-05-10 00:47:01,35.98,-114.83,100.0,7,1,9.17,clear sky,0,0
545,Carbonia,IT,2020-05-10 00:47:01,39.17,8.52,66.99,93,75,9.17,broken clouds,0,0
546,Laguna,US,2020-05-10 00:47:01,38.42,-121.42,91.4,14,1,9.17,clear sky,0,0
547,Cotonou,BJ,2020-05-10 00:47:01,6.37,2.42,84.2,83,40,11.41,scattered clouds,0,0
548,Rocha,UY,2020-05-10 00:47:02,-34.48,-54.33,50.83,84,0,6.24,clear sky,0,0
549,Parakai,NZ,2020-05-10 00:47:02,-36.65,174.43,66.99,76,99,1.99,overcast clouds,0,0
550,Vaitape,PF,2020-05-10 00:47:02,-16.52,-151.75,81.84,80,0,17.18,clear sky,0,0
551,Atbasar,KZ,2020-05-10 00:47:02,51.8,68.33,58.66,49,88,11.5,overcast clouds,0,0
552,Alpena,US,2020-05-10 00:47:02,45.06,-83.43,42.8,35,1,10.29,clear sky,0,0
553,Yulara,AU,2020-05-10 00:47:02,-25.24,130.99,57.2,44,100,14.99,overcast clouds,0,0
554,Sonipat,IN,2020-05-10 00:44:13,28.98,77.02,82.4,65,40,6.93,haze,0,0
555,Shenzhen,CN,2020-05-10 00:47:03,22.55,114.07,87.01,83,40,11.18,scattered clouds,0,0
556,Krasnovishersk,RU,2020-05-10 00:47:03,60.41,57.08,53.92,68,0,3.74,clear sky,0,0
557,Kabanjahe,ID,2020-05-10 00:47:03,3.1,98.49,78.8,100,40,1.48,mist,0,0
558,Pocone,BR,2020-05-10 00:47:03,-16.26,-56.62,70.63,82,0,2.75,clear sky,0,0
559,Obo,CF,2020-05-10 00:42:09,5.4,26.49,66.87,90,95,2.44,overcast clouds,0,0
560,Lillooet,CA,2020-05-10 00:47:03,50.69,-121.94,84.2,21,1,4.7,clear sky,0,0
561,Inhambane,MZ,2020-05-10 00:47:03,-23.86,35.38,68.45,83,2,9.42,clear sky,0,0
562,Miguel Calmon,BR,2020-05-10 00:47:04,-11.43,-40.59,68.31,79,98,8.79,overcast clouds,0,0
