City,Country,Date,Lat,Lng,Max Temp,Humidity,Cloudiness,Wind Speed,Current Description,Rain Inches (last 3 hrs),Snow Inches (last 3 hrs)
Keetmanshoop,NA,2020-05-10 10:02:46,-26.58,18.13,78.8,26,0,13.87,clear sky,0,0
Kapaa,US,2020-05-10 10:02:46,22.08,-159.32,73.4,78,90,14.99,overcast clouds,0,0
Saskylakh,RU,2020-05-10 10:02:46,71.92,114.08,25.45,96,100,13.73,overcast clouds,0,0
Bonthe,SL,2020-05-10 10:02:46,7.53,-12.51,82.85,79,100,9.51,overcast clouds,0,0
Hearst,CA,2020-05-10 10:02:46,49.68,-83.67,24.64,98,99,9.37,overcast clouds,0,0
Tasiilaq,GL,2020-05-10 10:02:46,65.61,-37.64,32.0,90,46,11.41,scattered clouds,0,0
Severo-Kurilsk,RU,2020-05-10 10:02:47,50.68,156.12,33.19,94,46,14.65,light snow,0,0
Ushuaia,AR,2020-05-10 10:02:47,-54.8,-68.3,39.2,93,40,2.06,scattered clouds,0,0
Bethel,US,2020-05-10 10:00:58,41.37,-73.41,36.0,69,75,10.29,broken clouds,0,0
Punta Arenas,CL,2020-05-10 10:02:47,-53.15,-70.92,42.8,93,90,2.24,overcast clouds,0,0
Ilulissat,GL,2020-05-10 10:02:47,69.22,-51.1,30.2,80,98,8.05,overcast clouds,0,0
Kaitangata,NZ,2020-05-10 10:02:47,-46.28,169.85,50.0,85,23,1.99,few clouds,0,0
Leningradskiy,RU,2020-05-10 10:02:47,69.38,178.42,35.4,89,100,21.0,overcast clouds,0,0
Airai,TL,2020-05-10 10:02:47,-8.93,125.41,60.31,100,52,3.24,broken clouds,0,0
Seoul,KR,2020-05-10 10:02:48,37.57,126.98,62.6,87,75,11.41,mist,0,0
Kodiak,US,2020-05-10 10:02:48,57.79,-152.41,42.8,87,90,6.93,light rain,0,0
Bojnurd,IR,2020-05-10 10:02:48,37.47,57.33,73.4,46,99,4.7,overcast clouds,0,0
Busselton,AU,2020-05-10 10:02:48,-33.65,115.33,62.01,49,50,3.85,scattered clouds,0,0
Mount Isa,AU,2020-05-10 10:02:48,-20.73,139.5,75.2,22,0,14.99,clear sky,0,0
Khatanga,RU,2020-05-10 10:02:48,71.97,102.5,32.43,95,91,10.87,overcast clouds,0,0
Yangjiang,CN,2020-05-10 10:02:49,21.85,111.97,83.1,83,100,5.93,light rain,0,0
Victor Harbor,AU,2020-05-10 10:02:49,-35.57,138.62,52.0,86,6,4.16,clear sky,0,0
Longyearbyen,SJ,2020-05-10 09:58:46,78.22,15.64,19.4,57,40,6.93,scattered clouds,0,0
Chuy,UY,2020-05-10 10:02:49,-33.7,-53.46,51.87,88,1,6.53,clear sky,0,0
Cuajinicuilapa,MX,2020-05-10 10:02:49,16.47,-98.42,76.64,71,14,1.54,few clouds,0,0
Jamestown,US,2020-05-10 09:58:33,42.1,-79.24,33.8,69,1,6.93,clear sky,0,0
Kavieng,PG,2020-05-10 10:02:49,-2.57,150.8,84.54,79,100,10.83,overcast clouds,0,0
Saint George,US,2020-05-10 10:00:52,37.1,-113.58,68.0,22,1,6.93,clear sky,0,0
Fairbanks,US,2020-05-10 10:02:50,64.84,-147.72,53.6,54,1,5.82,clear sky,0,0
Tanout,NE,2020-05-10 10:02:50,14.97,8.89,102.69,7,44,14.5,scattered clouds,0,0
Pathein,MM,2020-05-10 10:02:50,16.78,94.73,98.38,30,24,13.82,light rain,0,0
Fare,PF,2020-05-10 10:02:50,-16.7,-151.02,82.27,81,56,15.55,light rain,0,0
Baruun-Urt,MN,2020-05-10 10:02:50,46.68,113.28,52.66,41,3,19.46,clear sky,0,0
Cayenne,GF,2020-05-10 10:02:50,4.93,-52.33,77.0,100,63,3.36,moderate rain,0,0
Rikitea,PF,2020-05-10 10:02:52,-23.12,-134.97,75.04,72,0,8.59,clear sky,0,0
Tevaitoa,PF,2020-05-10 10:02:52,-16.78,-151.5,81.61,83,12,16.96,light rain,0,0
Burnie,AU,2020-05-10 10:02:52,-41.07,145.92,50.0,72,39,5.01,scattered clouds,0,0
La Ronge,CA,2020-05-10 10:02:52,55.1,-105.28,24.8,73,20,8.05,few clouds,0,0
Georgetown,MY,2020-05-10 10:02:52,5.41,100.34,86.0,94,20,3.36,thunderstorm with light rain,0,0
Arawa,PG,2020-05-10 10:02:52,-6.21,155.54,79.9,83,89,3.65,light rain,0,0
Qaanaaq,GL,2020-05-10 10:02:52,77.48,-69.36,10.81,84,97,6.78,overcast clouds,0,0
The Valley,AI,2020-05-10 10:02:53,18.22,-63.06,80.6,69,20,11.41,few clouds,0,0
Cidreira,BR,2020-05-10 10:02:53,-30.18,-50.21,58.28,68,0,3.8,clear sky,0,0
Lyngseidet,NO,2020-05-10 10:02:53,69.58,20.22,35.6,51,20,11.41,few clouds,0,0
Harnosand,SE,2020-05-10 10:02:53,62.63,17.94,41.0,93,100,5.82,light rain,0,0
Omboue,GA,2020-05-10 10:02:53,-1.57,9.26,80.42,84,100,8.25,moderate rain,0,0
East London,ZA,2020-05-10 10:02:53,-33.02,27.91,84.2,39,0,3.36,clear sky,0,0
Viedma,AR,2020-05-10 10:02:54,-40.81,-63.0,58.12,50,71,11.7,broken clouds,0,0
Kozan,TR,2020-05-10 10:02:54,37.46,35.82,78.8,41,20,4.12,few clouds,0,0
Hilo,US,2020-05-10 10:01:40,19.73,-155.09,71.6,78,20,3.36,few clouds,0,0
Adrar,MR,2020-05-10 10:02:54,20.5,-10.07,85.96,16,17,18.1,few clouds,0,0
Bogorodskoye,RU,2020-05-10 10:02:54,56.55,37.88,58.93,55,100,18.75,overcast clouds,0,0
Cape Town,ZA,2020-05-10 09:58:53,-33.93,18.42,70.0,100,75,8.05,mist,0,0
Nikolskoye,RU,2020-05-10 10:02:54,59.7,30.79,55.4,30,12,6.71,few clouds,0,0
Gotsu,JP,2020-05-10 10:02:54,35.0,132.22,64.4,82,75,3.36,light intensity shower rain,0,0
Bluff,NZ,2020-05-10 10:02:55,-46.6,168.33,53.42,86,23,8.12,few clouds,0,0
Hobart,AU,2020-05-10 10:00:10,-42.88,147.33,51.8,62,75,10.29,broken clouds,0,0
Hithadhoo,MV,2020-05-10 10:00:36,-0.6,73.08,84.79,75,57,10.45,moderate rain,0,0
Ulladulla,AU,2020-05-10 09:59:58,-35.35,150.47,50.0,57,0,9.17,clear sky,0,0
Puerto Ayora,EC,2020-05-10 10:02:55,-0.74,-90.35,75.0,92,23,5.48,few clouds,0,0
Nabire,ID,2020-05-10 10:00:58,-3.37,135.48,81.32,82,100,1.41,overcast clouds,0,0
Lagoa,PT,2020-05-10 10:02:56,39.05,-27.98,59.02,77,51,23.17,broken clouds,0,0
Ponta Do Sol,PT,2020-05-10 10:02:56,32.67,-17.1,66.99,66,74,7.0,broken clouds,0,0
Constitucion,CL,2020-05-10 10:02:56,-35.33,-72.42,53.98,86,3,6.58,clear sky,0,0
Bandarbeyla,SO,2020-05-10 10:02:56,9.49,50.81,88.07,59,0,11.52,clear sky,0,0
Zhanaozen,KZ,2020-05-10 10:02:56,43.3,52.8,69.53,54,100,12.44,overcast clouds,0,0
Bredasdorp,ZA,2020-05-10 10:02:56,-34.53,20.04,60.8,87,4,3.36,clear sky,0,0
Albany,US,2020-05-10 10:02:56,42.6,-73.97,39.2,55,90,12.75,overcast clouds,0,0
Lompoc,US,2020-05-10 10:02:56,34.64,-120.46,55.0,100,90,3.36,fog,0,0
Bilibino,RU,2020-05-10 10:02:57,68.05,166.44,34.18,87,76,21.27,broken clouds,0,0
Hibbing,US,2020-05-10 10:02:57,47.43,-92.94,37.4,55,90,9.17,overcast clouds,0,0
Fort Nelson,CA,2020-05-10 10:02:57,58.81,-122.7,31.08,95,0,3.53,clear sky,0,0
Catamarca,AR,2020-05-10 10:02:57,-28.47,-65.79,55.0,82,67,1.99,broken clouds,0,0
Zhanakorgan,KZ,2020-05-10 10:02:57,43.91,67.25,87.67,14,0,13.91,clear sky,0,0
Castro,BR,2020-05-10 10:00:20,-24.79,-50.01,47.35,90,0,3.27,clear sky,0,0
Davila,PH,2020-05-10 10:02:57,18.47,120.58,87.8,74,20,11.41,few clouds,0,0
Butaritari,KI,2020-05-10 10:02:58,3.07,172.79,83.34,78,24,10.89,moderate rain,0,0
Conde,BR,2020-05-10 10:02:58,-7.26,-34.91,71.6,100,20,3.36,few clouds,0,0
Mataura,NZ,2020-05-10 10:02:58,-46.19,168.86,48.6,92,2,3.2,clear sky,0,0
Yashkul,RU,2020-05-10 10:02:58,46.17,45.34,64.56,41,99,13.0,overcast clouds,0,0
Saint Anthony,US,2020-05-10 10:02:58,45.02,-93.22,39.2,80,90,8.05,overcast clouds,0,0
Wajir,KE,2020-05-10 10:02:58,1.75,40.06,91.4,43,75,9.17,broken clouds,0,0
Iralaya,HN,2020-05-10 10:02:59,15.0,-83.23,81.57,80,94,7.99,light rain,0,0
Hermanus,ZA,2020-05-10 10:02:59,-34.42,19.23,71.74,49,0,5.61,clear sky,0,0
Muisne,EC,2020-05-10 10:02:59,0.6,-80.03,78.28,85,96,8.48,light rain,0,0
Port Alfred,ZA,2020-05-10 10:02:59,-33.59,26.89,87.01,35,0,8.01,clear sky,0,0
Kruisfontein,ZA,2020-05-10 10:02:59,-34.0,24.73,86.23,16,0,11.45,clear sky,0,0
Neyshabur,IR,2020-05-10 10:02:59,36.21,58.8,80.46,18,100,5.46,overcast clouds,0,0
Leh,IN,2020-05-10 10:02:59,34.17,77.58,50.99,39,100,5.19,overcast clouds,0,0
Wadi Musa,JO,2020-05-10 10:03:00,30.32,35.48,66.45,28,0,7.11,clear sky,0,0
Ahome,MX,2020-05-10 10:03:00,25.92,-109.18,62.01,91,0,4.03,clear sky,0,0
Bull Savanna,JM,2020-05-10 10:03:00,17.89,-77.59,75.52,88,91,12.24,overcast clouds,0,0
Torbay,CA,2020-05-10 09:58:03,47.67,-52.73,39.0,89,20,20.8,few clouds,0,0
Rocha,UY,2020-05-10 10:03:00,-34.48,-54.33,50.45,84,44,8.14,scattered clouds,0,0
Tiznit,MA,2020-05-10 10:03:00,29.58,-9.5,60.03,74,93,15.52,overcast clouds,0,0
Tchollire,CM,2020-05-10 10:03:00,8.4,14.17,91.76,47,100,6.22,overcast clouds,0,0
La Paz,BO,2020-05-10 10:00:03,-16.5,-68.15,41.0,75,40,2.24,scattered clouds,0,0
Lazaro Cardenas,MX,2020-05-10 10:03:01,17.96,-102.2,74.91,89,1,4.32,clear sky,0,0
Port Blair,IN,2020-05-10 10:03:01,11.67,92.75,86.58,68,91,4.56,overcast clouds,0,0
Sao Felix Do Xingu,BR,2020-05-10 10:03:01,-6.64,-51.99,71.67,96,92,1.9,overcast clouds,0,0
Port Elizabeth,ZA,2020-05-10 10:00:08,-33.92,25.57,86.0,25,3,3.36,clear sky,0,0
Pangnirtung,CA,2020-05-10 10:03:01,66.15,-65.71,20.39,89,100,11.77,light snow,0,0
Komsomolskiy,UZ,2020-05-10 10:03:01,40.43,71.72,80.6,32,0,9.17,clear sky,0,0
Bonita Springs,US,2020-05-10 09:58:58,26.34,-81.78,73.0,85,100,6.78,overcast clouds,0,0
Isangel,VU,2020-05-10 10:03:02,-19.55,169.27,66.2,93,20,5.82,few clouds,0,0
Silopi,TR,2020-05-10 10:03:02,37.25,42.47,68.0,64,75,10.29,broken clouds,0,0
San Cristobal,VE,2020-05-10 10:03:02,7.77,-72.22,65.73,88,68,4.97,broken clouds,0,0
Barrow,US,2020-05-10 10:00:01,71.29,-156.79,24.8,85,1,4.7,fog,0,0
Carnarvon,AU,2020-05-10 10:03:02,-24.87,113.63,74.62,58,100,13.82,overcast clouds,0,0
Riyadh,SA,2020-05-10 10:03:02,24.69,46.72,98.6,17,90,5.82,dust,0,0
Vaini,TO,2020-05-10 10:03:03,-21.2,-175.2,75.2,100,75,5.82,broken clouds,0,0
Mezhdurechensk,RU,2020-05-10 10:03:03,53.69,88.06,78.6,26,0,4.92,clear sky,0,0
Paita,PE,2020-05-10 10:03:03,-5.09,-81.11,70.14,82,24,10.51,few clouds,0,0
Nouakchott,MR,2020-05-10 10:03:03,18.09,-15.98,80.6,32,8,18.34,clear sky,0,0
Moranbah,AU,2020-05-10 10:03:03,-22.0,148.05,74.32,44,62,8.01,broken clouds,0,0
Ayagoz,KZ,2020-05-10 10:03:03,47.97,80.44,76.26,32,92,15.3,overcast clouds,0,0
Grand Gaube,MU,2020-05-10 10:03:03,-20.01,57.66,80.01,56,0,8.99,clear sky,0,0
Saint-Joseph,RE,2020-05-10 10:03:04,-21.37,55.62,80.6,57,75,17.22,broken clouds,0,0
Fortuna,US,2020-05-10 10:03:04,40.6,-124.16,54.0,100,90,1.68,overcast clouds,0,0
Brattvag,NO,2020-05-10 10:03:04,62.6,6.44,39.2,69,75,11.41,light shower snow,0,0
Bosaso,SO,2020-05-10 10:03:04,11.28,49.18,95.13,38,17,11.03,few clouds,0,0
Belmonte,BR,2020-05-10 10:03:04,-15.86,-38.88,66.2,88,75,8.05,broken clouds,0,0
Upernavik,GL,2020-05-10 10:03:04,72.79,-56.15,13.59,93,95,7.72,overcast clouds,0,0
Nuuk,GL,2020-05-10 10:03:05,64.18,-51.72,48.2,45,94,6.93,overcast clouds,0,0
Huntsville,US,2020-05-10 10:00:39,34.73,-86.59,43.0,100,1,1.59,clear sky,0,0
Gurun,MY,2020-05-10 10:03:05,5.82,100.47,87.8,94,20,3.36,thunderstorm with light rain,0,0
Atuona,PF,2020-05-10 10:03:05,-9.8,-139.03,81.25,75,16,15.84,light rain,0,0
Kosiv,UA,2020-05-10 10:03:05,48.31,25.1,70.2,46,89,4.25,light rain,0,0
Krasnoselkup,RU,2020-05-10 10:03:05,65.7,82.47,38.98,84,100,10.96,overcast clouds,0,0
Yamethin,MM,2020-05-10 10:03:05,20.43,96.15,101.1,26,51,7.72,broken clouds,0,0
Altayskoye,RU,2020-05-10 10:03:05,51.95,85.33,80.44,29,1,6.46,clear sky,0,0
Makakilo City,US,2020-05-10 10:03:06,21.35,-158.09,75.2,83,40,4.7,scattered clouds,0,0
Aklavik,CA,2020-05-10 10:03:06,68.22,-135.01,39.2,64,75,10.29,broken clouds,0,0
Lebu,CL,2020-05-10 10:03:06,-37.62,-73.65,54.75,84,23,11.45,light rain,0,0
Coihaique,CL,2020-05-10 10:03:06,-45.58,-72.07,39.2,93,75,3.36,broken clouds,0,0
Inhambane,MZ,2020-05-10 10:03:06,-23.86,35.38,78.8,54,75,16.11,broken clouds,0,0
Srednekolymsk,RU,2020-05-10 10:03:06,67.45,153.68,32.32,95,100,16.08,overcast clouds,0,0
Sijunjung,ID,2020-05-10 10:03:06,-0.69,100.95,83.26,86,79,0.18,moderate rain,0,0
Provideniya,RU,2020-05-10 10:03:07,64.38,-173.3,34.27,95,100,13.51,light rain,0,0
San Andres,CO,2020-05-10 10:03:07,12.58,-81.7,82.4,83,90,12.75,overcast clouds,0,0
San Felipe,VE,2020-05-10 10:03:07,10.34,-68.74,71.55,90,76,0.81,broken clouds,0,0
Annecy-Le-Vieux,FR,2020-05-10 10:03:07,45.92,6.14,71.01,55,75,2.24,broken clouds,0,0
Harper,LR,2020-05-10 10:03:07,4.38,-7.72,85.33,73,17,9.42,light rain,0,0
Hamilton,US,2020-05-10 10:00:29,39.18,-84.53,44.01,69,90,8.05,overcast clouds,0,0
Sistranda,NO,2020-05-10 10:03:07,63.73,8.83,39.2,55,20,11.41,few clouds,0,0
Kirensk,RU,2020-05-10 10:03:07,57.79,108.11,56.3,36,10,18.21,clear sky,0,0
Ketchikan,US,2020-05-10 10:03:08,55.34,-131.65,64.4,62,1,6.15,clear sky,0,0
Bokoro,TD,2020-05-10 10:03:08,12.38,17.06,103.75,7,1,5.88,clear sky,0,0
Namibe,AO,2020-05-10 10:03:08,-15.2,12.15,84.2,62,20,5.23,few clouds,0,0
Hobyo,SO,2020-05-10 10:03:08,5.35,48.53,88.23,62,1,8.79,clear sky,0,0
Faanui,PF,2020-05-10 10:03:08,-16.48,-151.75,81.39,83,32,15.05,light rain,0,0
Phuket,TH,2020-05-10 10:03:08,8.0,98.25,86.0,79,75,3.36,broken clouds,0,0
Coripata,BO,2020-05-10 10:03:08,-16.3,-67.6,41.0,75,40,2.24,scattered clouds,0,0
Santa Barbara,US,2020-05-10 10:00:15,34.42,-119.7,55.99,100,90,1.14,mist,0,0
Avarua,CK,2020-05-10 10:02:07,-21.21,-159.78,77.0,88,45,8.05,scattered clouds,0,0
Saint-Philippe,RE,2020-05-10 10:03:09,-21.36,55.77,80.6,57,75,17.22,broken clouds,0,0
Esperance,AU,2020-05-10 10:03:09,-33.87,121.9,64.4,36,0,8.05,clear sky,0,0
Taoudenni,ML,2020-05-10 10:03:09,22.68,-3.98,100.9,7,21,9.48,few clouds,0,0
Rio Grande,BR,2020-05-10 10:03:09,-32.03,-52.1,58.06,71,27,7.36,scattered clouds,0,0
Severo-Yeniseyskiy,RU,2020-05-10 10:03:09,60.37,93.04,60.42,32,0,6.8,clear sky,0,0
Yar-Sale,RU,2020-05-10 10:03:10,66.83,70.83,33.51,97,99,13.35,overcast clouds,0,0
Yining,CN,2020-05-10 10:03:10,29.04,114.56,77.38,66,1,4.59,clear sky,0,0
Barra Do Garcas,BR,2020-05-10 10:03:10,-15.89,-52.26,67.01,89,21,3.67,few clouds,0,0
Sitangkai,PH,2020-05-10 10:03:10,4.66,119.39,86.45,66,86,3.91,overcast clouds,0,0
Parati,BR,2020-05-10 10:00:03,-23.22,-44.71,51.8,81,20,2.24,few clouds,0,0
Shimoda,JP,2020-05-10 10:03:10,34.67,138.95,70.11,92,100,17.56,overcast clouds,0,0
Dzaoudzi,YT,2020-05-10 10:03:11,-12.79,45.27,86.0,74,6,11.41,light rain,0,0
Eyl,SO,2020-05-10 10:03:11,7.98,49.82,90.9,47,56,9.91,broken clouds,0,0
Sovetskiy,RU,2020-05-10 10:03:11,61.36,63.58,79.81,25,95,11.18,overcast clouds,0,0
Houma,US,2020-05-10 10:03:11,29.6,-90.72,62.6,67,90,6.93,overcast clouds,0,0
Cabo San Lucas,MX,2020-05-10 10:03:11,22.89,-109.91,72.0,55,0,13.67,clear sky,0,0
Swan River,CA,2020-05-10 10:03:11,52.11,-101.27,28.92,95,99,10.0,overcast clouds,0,0
Carauari,BR,2020-05-10 10:00:27,-4.88,-66.9,71.17,97,98,1.07,light rain,0,0
Sinnamary,GF,2020-05-10 10:03:12,5.38,-52.95,78.26,88,82,11.5,moderate rain,0,0
Port Lincoln,AU,2020-05-10 10:03:12,-34.73,135.87,57.06,69,8,6.17,clear sky,0,0
Iqaluit,CA,2020-05-10 10:03:12,63.75,-68.51,30.2,74,90,19.46,light snow,0,0
Oistins,BB,2020-05-10 10:03:12,13.07,-59.53,78.8,78,40,19.46,shower rain,0,0
Sioux Lookout,CA,2020-05-10 10:03:12,50.1,-91.92,28.4,63,75,9.17,broken clouds,0,0
Bilma,NE,2020-05-10 10:03:12,18.69,12.92,101.39,7,0,11.7,clear sky,0,0
Ossora,RU,2020-05-10 10:03:13,59.24,163.07,33.21,92,100,1.01,overcast clouds,0,0
Saldanha,ZA,2020-05-10 10:03:13,-33.01,17.94,71.6,53,0,2.24,clear sky,0,0
Coquimbo,CL,2020-05-10 10:03:13,-29.95,-71.34,51.8,93,0,2.24,clear sky,0,0
Mezen,RU,2020-05-10 10:03:13,65.85,44.24,43.38,78,98,10.98,overcast clouds,0,0
Tynda,RU,2020-05-10 10:03:13,55.17,124.72,44.02,55,83,6.06,broken clouds,0,0
Henties Bay,NA,2020-05-10 10:03:13,-22.12,14.28,87.48,22,0,15.73,clear sky,0,0
Durant,US,2020-05-10 10:03:13,33.99,-96.37,55.0,87,1,2.93,clear sky,0,0
Nchelenge,ZM,2020-05-10 10:03:13,-9.35,28.73,77.47,49,99,3.56,overcast clouds,0,0
Linhares,BR,2020-05-10 10:03:14,-19.39,-40.07,63.72,77,35,3.91,scattered clouds,0,0
Katherine,AU,2020-05-10 10:03:14,-14.47,132.27,87.8,27,90,9.17,overcast clouds,0,0
Alofi,NU,2020-05-10 10:03:14,-19.06,-169.92,75.2,100,20,1.12,few clouds,0,0
Sibu,MY,2020-05-10 10:03:14,2.3,111.82,93.2,59,40,5.82,scattered clouds,0,0
Okha,RU,2020-05-10 10:03:14,53.57,142.95,40.69,70,8,5.14,clear sky,0,0
Vila Franca Do Campo,PT,2020-05-10 10:03:14,37.72,-25.43,60.8,67,20,13.87,few clouds,0,0
Kavaratti,IN,2020-05-10 10:03:14,10.57,72.64,93.2,59,40,5.82,scattered clouds,0,0
Nemuro,JP,2020-05-10 10:03:14,43.32,145.57,42.8,93,75,13.87,light intensity shower rain,0,0
Ixtapa,MX,2020-05-10 10:03:15,20.7,-105.2,72.28,28,0,3.47,clear sky,0,0
Lorengau,PG,2020-05-10 10:03:15,-2.02,147.27,83.86,76,9,8.34,clear sky,0,0
Takoradi,GH,2020-05-10 10:03:15,4.88,-1.76,86.52,72,19,8.97,few clouds,0,0
Svetlogorsk,BY,2020-05-10 10:03:15,52.63,29.73,64.02,47,55,7.16,broken clouds,0,0
Sorong,ID,2020-05-10 10:03:15,-0.88,131.25,83.17,82,100,12.08,overcast clouds,0,0
Mandalgovi,MN,2020-05-10 10:03:15,45.76,106.27,51.19,40,0,18.7,clear sky,0,0
Depew,US,2020-05-10 10:03:15,42.9,-78.69,39.2,64,40,5.82,scattered clouds,0,0
Pisco,PE,2020-05-10 10:03:15,-13.7,-76.22,64.4,88,26,3.36,mist,0,0
Waingapu,ID,2020-05-10 09:59:53,-9.66,120.26,79.48,72,10,10.74,clear sky,0,0
Gravdal,NO,2020-05-10 10:03:16,68.12,13.5,35.6,74,40,14.99,shower rain,0,0
Walla Walla,US,2020-05-10 10:03:16,46.06,-118.34,57.2,58,1,1.66,clear sky,0,0
Miandrivazo,MG,2020-05-10 10:03:16,-19.52,45.47,84.74,47,97,4.79,overcast clouds,0,0
Onega,RU,2020-05-10 10:03:16,63.91,38.14,41.67,68,42,6.69,scattered clouds,0,0
Meulaboh,ID,2020-05-10 10:03:16,4.14,96.13,83.68,84,96,4.36,moderate rain,0,0
Matay,EG,2020-05-10 10:03:17,28.42,30.78,84.4,15,8,10.13,clear sky,0,0
Nikolayevka,RU,2020-05-10 10:03:17,53.13,47.2,61.45,58,25,15.75,light rain,0,0
Codrington,AU,2020-05-10 10:03:17,-38.27,141.97,48.92,87,0,7.72,clear sky,0,0
Bodden Town,KY,2020-05-10 10:03:05,19.28,-81.25,84.0,76,100,11.99,overcast clouds,0,0
Ciro Marina,IT,2020-05-10 10:03:17,39.37,17.13,66.2,72,75,14.99,broken clouds,0,0
Abha,SA,2020-05-10 09:59:35,18.22,42.51,82.4,32,40,11.41,scattered clouds,0,0
San Patricio,MX,2020-05-10 10:03:17,19.22,-104.7,71.74,81,0,0.98,clear sky,0,0
Tsumeb,NA,2020-05-10 10:03:18,-19.23,17.72,79.36,21,10,16.75,clear sky,0,0
Ternate,ID,2020-05-10 10:03:18,0.8,127.4,83.79,74,80,8.28,broken clouds,0,0
Sur,OM,2020-05-10 10:03:18,22.57,59.53,90.82,34,61,7.9,broken clouds,0,0
Kaeo,NZ,2020-05-10 10:03:18,-35.1,173.78,62.01,3,41,4.0,scattered clouds,0,0
Polunochnoye,RU,2020-05-10 10:03:18,60.87,60.42,77.25,30,100,9.08,overcast clouds,0,0
Bayanday,RU,2020-05-10 10:03:18,53.07,105.51,60.01,49,100,16.37,overcast clouds,0,0
Kaliyaganj,IN,2020-05-10 10:03:18,25.63,88.32,101.3,17,0,2.44,clear sky,0,0
Maldonado,UY,2020-05-10 10:03:19,-34.67,-54.92,53.6,81,51,6.93,broken clouds,0,0
Bengkulu,ID,2020-05-10 10:03:19,-3.8,102.27,81.79,86,53,7.07,moderate rain,0,0
Berlevag,NO,2020-05-10 10:03:19,70.86,29.09,32.49,89,3,10.42,clear sky,0,0
Uchiza,PE,2020-05-10 10:03:19,-8.46,-76.46,71.19,67,92,1.23,overcast clouds,0,0
Kahului,US,2020-05-10 10:03:19,20.89,-156.47,73.4,73,75,12.75,broken clouds,0,0
Puerto Colombia,CO,2020-05-10 10:03:19,10.99,-74.95,82.4,88,10,8.05,clear sky,0,0
Verkhnyaya Inta,RU,2020-05-10 10:03:19,65.98,60.31,44.01,94,99,6.06,overcast clouds,0,0
Hasaki,JP,2020-05-10 10:03:20,35.73,140.83,73.4,83,75,19.46,broken clouds,0,0
Skibbereen,IE,2020-05-10 10:03:20,51.55,-9.27,55.4,82,75,14.99,broken clouds,0,0
Pacific Grove,US,2020-05-10 10:03:20,36.62,-121.92,55.4,82,90,6.93,overcast clouds,0,0
Narsaq,GL,2020-05-10 10:03:20,60.92,-46.05,55.4,30,100,23.04,overcast clouds,0,0
Victoria,HK,2020-05-10 10:02:14,22.29,114.16,82.99,65,58,8.01,light rain,0,0
Sena Madureira,BR,2020-05-10 10:02:39,-9.07,-68.66,67.17,88,13,0.58,few clouds,0,0
Beringovskiy,RU,2020-05-10 10:03:20,63.05,179.32,34.12,91,94,30.0,overcast clouds,0,0
Sal Rei,CV,2020-05-10 10:03:20,16.18,-22.92,73.4,73,75,18.34,broken clouds,0,0
Zhigalovo,RU,2020-05-10 10:03:21,54.81,105.16,61.59,61,100,17.72,light rain,0,0
Dikson,RU,2020-05-10 10:03:21,73.51,80.55,31.23,94,96,19.89,overcast clouds,0,0
Carahue,CL,2020-05-10 10:03:21,-38.7,-73.17,48.2,100,75,5.82,broken clouds,0,0
Olkhovka,RU,2020-05-10 10:03:21,53.21,60.61,72.63,46,63,7.09,broken clouds,0,0
Charters Towers,AU,2020-05-10 10:03:21,-20.1,146.27,70.77,54,43,8.03,scattered clouds,0,0
Marawi,PH,2020-05-10 10:03:21,8.0,124.29,84.0,87,92,1.99,light rain,0,0
Muros,ES,2020-05-10 10:03:22,42.78,-9.06,63.0,82,75,4.7,broken clouds,0,0
Sao Filipe,CV,2020-05-10 10:03:22,14.9,-24.5,74.17,73,86,11.59,overcast clouds,0,0
Mount Gambier,AU,2020-05-10 10:03:22,-37.83,140.77,50.0,87,75,6.93,broken clouds,0,0
Juneau,US,2020-05-10 10:00:41,58.3,-134.42,51.01,75,20,6.33,few clouds,0,0
Kosa,RU,2020-05-10 10:03:22,59.94,55.0,76.28,40,71,8.79,broken clouds,0,0
Mehran,IR,2020-05-10 10:03:22,33.12,46.16,75.2,38,20,9.17,dust,0,0
Bela Vista,BR,2020-05-10 10:03:22,-22.11,-56.52,58.12,79,0,5.82,clear sky,0,0
Tadine,NC,2020-05-10 10:03:23,-21.55,167.88,70.29,73,31,10.74,scattered clouds,0,0
Bathsheba,BB,2020-05-10 10:03:23,13.22,-59.52,78.8,78,40,19.46,shower rain,0,0
Vila Velha,BR,2020-05-10 10:00:04,-20.33,-40.29,66.2,82,75,4.7,broken clouds,0,0
Norman Wells,CA,2020-05-10 10:03:23,65.28,-126.83,41.0,65,5,13.87,clear sky,0,0
Tikhvin,RU,2020-05-10 10:03:23,59.65,33.53,58.78,35,50,4.94,scattered clouds,0,0
Tura,IN,2020-05-10 10:03:23,25.52,90.22,91.44,34,76,3.18,broken clouds,0,0
Stornoway,GB,2020-05-10 10:03:24,58.21,-6.39,41.0,60,55,23.04,broken clouds,0,0
Bambous Virieux,MU,2020-05-10 10:03:24,-20.34,57.76,80.6,54,40,13.87,scattered clouds,0,0
Virginia Beach,US,2020-05-10 10:00:59,36.85,-75.98,50.0,80,1,5.82,clear sky,0,0
Maningrida,AU,2020-05-10 10:03:24,-12.07,134.27,82.47,55,67,13.65,broken clouds,0,0
Storforshei,NO,2020-05-10 10:03:24,66.4,14.52,31.64,88,100,4.63,light snow,0,0
New Norfolk,AU,2020-05-10 10:03:24,-42.78,147.06,50.0,82,62,1.01,broken clouds,0,0
Filingue,NE,2020-05-10 10:03:24,14.35,3.32,103.14,11,40,8.19,scattered clouds,0,0
Corinto,GR,2020-05-10 10:00:25,37.94,22.96,77.0,59,99,8.01,overcast clouds,0,0
Manta,EC,2020-05-10 10:03:25,-0.95,-80.73,77.0,83,40,6.93,scattered clouds,0,0
Klaksvik,FO,2020-05-10 10:03:25,62.23,-6.59,32.0,86,100,12.75,overcast clouds,0,0
Camopi,GF,2020-05-10 10:01:35,3.17,-52.32,73.36,97,51,0.74,broken clouds,0,0
Kindersley,CA,2020-05-10 10:03:25,51.47,-109.17,28.99,92,75,5.82,broken clouds,0,0
Hambantota,LK,2020-05-10 10:03:25,6.12,81.12,89.6,79,40,10.29,scattered clouds,0,0
Juntas,CR,2020-05-10 10:03:25,10.28,-84.96,73.0,88,100,8.99,overcast clouds,0,0
Champerico,GT,2020-05-10 10:03:25,14.3,-91.92,83.25,74,94,9.33,overcast clouds,0,0
Bay Roberts,CA,2020-05-10 10:00:38,47.6,-53.26,39.0,27,35,8.99,scattered clouds,0,0
Tuatapere,NZ,2020-05-10 10:03:26,-46.13,167.68,51.46,78,93,6.87,overcast clouds,0,0
Baghdad,IQ,2020-05-10 10:03:26,33.34,44.4,84.2,30,0,12.75,clear sky,0,0
Yetkul,RU,2020-05-10 10:03:26,54.82,61.59,69.8,40,95,6.71,light rain,0,0
Birin,NP,2020-05-10 10:03:26,26.89,88.07,77.63,37,33,4.72,scattered clouds,0,0
Mahebourg,MU,2020-05-10 10:03:26,-20.41,57.7,80.6,54,40,13.87,scattered clouds,0,0
Fuyang,CN,2020-05-10 10:03:26,32.9,115.82,77.05,45,21,5.26,few clouds,0,0
Broome,US,2020-05-10 10:03:26,42.25,-75.83,33.8,74,90,8.05,overcast clouds,0,0
Kota Kinabalu,MY,2020-05-10 10:01:23,5.97,116.07,87.8,66,20,8.05,few clouds,0,0
Moindou,NC,2020-05-10 10:03:27,-21.69,165.68,69.8,83,75,2.24,broken clouds,0,0
Namatanai,PG,2020-05-10 10:03:27,-3.67,152.43,82.42,79,98,7.25,overcast clouds,0,0
Thompson,CA,2020-05-10 10:03:27,55.74,-97.86,15.8,72,5,9.17,clear sky,0,0
Dois Vizinhos,BR,2020-05-10 10:03:27,-25.73,-53.06,49.35,98,0,2.82,clear sky,0,0
Lufilufi,WS,2020-05-10 10:03:27,-13.87,-171.6,86.0,79,29,10.0,scattered clouds,0,0
Acajutla,SV,2020-05-10 10:03:27,13.59,-89.83,72.0,96,65,7.43,broken clouds,0,0
Alytus,LT,2020-05-10 10:03:28,54.4,24.05,62.6,42,0,6.93,clear sky,0,0
Ahipara,NZ,2020-05-10 10:03:28,-35.17,173.17,57.97,88,51,6.53,broken clouds,0,0
Lipin Bor,RU,2020-05-10 10:03:28,60.26,37.98,52.23,48,98,7.83,overcast clouds,0,0
North Bend,US,2020-05-10 10:03:28,43.41,-124.22,55.4,87,90,4.7,overcast clouds,0,0
Biharamulo,TZ,2020-05-10 10:03:28,-2.63,31.31,72.86,72,97,8.1,light rain,0,0
Boyolangu,ID,2020-05-10 10:03:28,-8.12,111.89,80.69,83,62,5.61,light rain,0,0
Tekeli,KZ,2020-05-10 10:03:28,44.83,78.82,60.06,61,99,5.32,overcast clouds,0,0
Bitaogan,PH,2020-05-10 10:03:29,6.77,126.08,82.4,78,90,9.17,shower rain,0,0
Bulembu,SZ,2020-05-10 10:03:29,-25.97,31.13,60.8,67,14,2.24,few clouds,0,0
Altea,ES,2020-05-10 10:03:29,38.6,-0.05,68.0,60,88,4.0,light rain,0,0
Yulara,AU,2020-05-10 10:01:06,-25.24,130.99,68.0,24,96,12.75,overcast clouds,0,0
Sitka,US,2020-05-10 10:03:29,57.05,-135.33,55.4,62,75,5.82,broken clouds,0,0
Vardo,NO,2020-05-10 10:03:29,70.37,31.11,33.94,83,1,13.4,clear sky,0,0
Sola,VU,2020-05-10 10:03:30,-13.88,167.55,82.4,78,40,14.61,scattered clouds,0,0
Geraldton,AU,2020-05-10 10:03:30,-28.77,114.6,71.6,53,0,6.93,clear sky,0,0
Cascais,PT,2020-05-10 10:03:30,38.7,-9.42,62.6,77,40,10.29,scattered clouds,0,0
Souillac,MU,2020-05-10 10:03:30,-20.52,57.52,80.6,54,40,13.87,scattered clouds,0,0
Beira,MZ,2020-05-10 10:02:53,-19.84,34.84,75.97,72,65,12.17,light rain,0,0
Neuquen,AR,2020-05-10 10:03:30,-38.95,-68.06,57.2,54,32,10.29,scattered clouds,0,0
Tessalit,ML,2020-05-10 10:03:31,20.2,1.01,102.69,8,0,3.6,clear sky,0,0
Vestmannaeyjar,IS,2020-05-10 10:03:31,63.44,-20.27,42.8,56,75,11.41,broken clouds,0,0
Arlit,NE,2020-05-10 10:03:31,18.74,7.39,103.84,8,0,10.04,clear sky,0,0
Hervey Bay,AU,2020-05-10 10:00:53,-25.3,152.85,70.0,87,99,4.0,light rain,0,0
Sept-Iles,CA,2020-05-10 10:03:31,50.2,-66.38,39.2,51,75,14.99,broken clouds,0,0
Ancud,CL,2020-05-10 10:03:31,-41.87,-73.82,48.2,87,90,9.17,overcast clouds,0,0
Monrovia,LR,2020-05-10 10:01:06,6.3,-10.8,80.6,88,40,11.41,scattered clouds,0,0
Lavrentiya,RU,2020-05-10 10:03:32,65.58,-171.0,35.06,87,99,7.72,overcast clouds,0,0
Atar,MR,2020-05-10 10:03:32,20.52,-13.05,82.4,30,35,23.04,sand,0,0
Shelburne,CA,2020-05-10 10:03:32,44.08,-80.2,32.0,95,75,4.7,broken clouds,0,0
Meadow Lake,US,2020-05-10 10:00:34,34.8,-106.54,61.0,29,75,29.97,broken clouds,0,0
Sakakah,SA,2020-05-10 10:03:32,29.97,40.21,80.6,18,0,8.05,clear sky,0,0
Mar Del Plata,AR,2020-05-10 10:03:32,-38.0,-57.56,55.0,93,0,5.82,clear sky,0,0
Cartagena,CO,2020-05-10 10:03:33,10.4,-75.51,80.44,84,44,4.32,scattered clouds,0,0
Biltine,TD,2020-05-10 10:03:33,14.53,20.92,103.75,6,2,11.23,clear sky,0,0
Port Macquarie,AU,2020-05-10 10:03:33,-31.43,152.92,57.0,55,7,12.88,clear sky,0,0
Labuhan,ID,2020-05-10 10:03:33,-6.88,112.21,83.21,81,87,9.84,light rain,0,0
Santa Maria,BR,2020-05-10 10:01:17,-29.68,-53.81,54.72,79,0,4.85,clear sky,0,0
Nizhnevartovsk,RU,2020-05-10 10:03:33,60.93,76.55,80.6,22,0,11.18,clear sky,0,0
Shubarshi,KZ,2020-05-10 10:03:34,48.59,57.19,73.24,33,97,8.72,overcast clouds,0,0
Ust-Nera,RU,2020-05-10 10:03:34,64.57,143.2,31.91,93,100,6.06,overcast clouds,0,0
Karratha,AU,2020-05-10 10:00:22,-20.74,116.85,79.18,52,82,8.97,broken clouds,0,0
Weligama,LK,2020-05-10 10:03:34,5.97,80.42,85.06,80,100,8.1,moderate rain,0,0
Caravelas,BR,2020-05-10 10:01:49,-17.71,-39.25,70.41,81,49,7.99,light rain,0,0
Aykhal,RU,2020-05-10 10:03:34,66.0,111.5,26.6,92,90,13.42,light shower snow,0,0
Husavik,IS,2020-05-10 10:03:34,66.04,-17.34,41.0,25,52,16.11,broken clouds,0,0
College,US,2020-05-10 10:03:34,64.86,-147.8,53.6,50,75,6.93,broken clouds,0,0
Tougan,BF,2020-05-10 10:03:35,13.07,-3.07,99.77,27,10,9.93,clear sky,0,0
Yellowknife,CA,2020-05-10 10:00:34,62.46,-114.35,21.2,67,20,11.41,few clouds,0,0
Ambilobe,MG,2020-05-10 10:03:35,-13.2,49.05,92.73,42,5,4.18,clear sky,0,0
Lasa,IT,2020-05-10 10:03:35,46.62,10.7,48.2,100,75,9.17,light rain,0,0
Biak,ID,2020-05-10 10:03:35,-0.91,122.88,80.11,80,76,6.73,light rain,0,0
Tiksi,RU,2020-05-10 10:03:35,71.69,128.87,27.88,96,100,8.52,overcast clouds,0,0
Poum,NC,2020-05-10 10:03:35,-20.23,164.02,75.61,71,1,9.24,clear sky,0,0
Deputatskiy,RU,2020-05-10 10:03:36,69.3,139.9,25.77,99,90,2.01,overcast clouds,0,0
Kuri,KR,2020-05-10 10:03:36,37.6,127.14,62.6,77,40,5.82,mist,0,0
Clayton,US,2020-05-10 10:03:36,33.53,-84.37,46.4,61,75,2.98,broken clouds,0,0
Clyde River,CA,2020-05-10 10:03:36,70.47,-68.59,6.8,77,90,11.41,overcast clouds,0,0
Talnakh,RU,2020-05-10 10:03:36,69.49,88.4,35.6,80,75,24.61,broken clouds,0,0
Yelanskiy,RU,2020-05-10 10:03:36,56.84,62.5,73.53,35,100,10.29,overcast clouds,0,0
Hofn,IS,2020-05-10 10:03:36,64.25,-15.21,36.75,66,0,5.82,clear sky,0,0
Daru,PG,2020-05-10 10:03:37,-9.08,143.21,80.22,84,99,19.51,light rain,0,0
Dukat,RU,2020-05-10 10:03:37,62.55,155.55,29.01,98,100,7.07,light snow,0,0
Sisimiut,GL,2020-05-10 10:03:37,66.94,-53.67,37.29,78,100,11.01,overcast clouds,0,0
Yuncheng,CN,2020-05-10 10:03:37,35.02,110.99,79.2,30,26,2.17,scattered clouds,0,0
Novyy Urgal,RU,2020-05-10 10:03:37,51.07,132.56,57.87,49,67,7.74,broken clouds,0,0
Olafsvik,IS,2020-05-10 10:03:37,64.89,-23.71,40.05,69,34,14.32,scattered clouds,0,0
Kilembe,UG,2020-05-10 10:03:37,0.2,30.0,68.22,83,99,5.21,light rain,0,0
Strai,NO,2020-05-10 10:03:38,58.2,7.9,50.0,53,40,11.41,scattered clouds,0,0
Manokwari,ID,2020-05-10 10:00:11,-0.87,134.08,82.81,79,85,2.77,moderate rain,0,0
Nova Granada,BR,2020-05-10 10:00:39,-20.53,-49.31,62.6,59,0,5.82,clear sky,0,0
Liverpool,GB,2020-05-10 10:03:38,53.41,-2.98,53.6,66,75,18.34,broken clouds,0,0
Neryungri,RU,2020-05-10 10:03:38,56.67,124.65,37.71,69,37,6.31,scattered clouds,0,0
Sungaipenuh,ID,2020-05-10 10:03:38,-2.08,101.38,71.22,94,100,2.3,light rain,0,0
Jibuti,DJ,2020-05-10 10:02:06,11.5,42.5,93.2,52,1,8.05,clear sky,0,0
Mansa,IN,2020-05-10 10:03:38,29.98,75.38,107.51,11,48,3.71,scattered clouds,0,0
Hokitika,NZ,2020-05-10 10:03:39,-42.72,170.97,53.11,87,89,5.61,overcast clouds,0,0
Pevek,RU,2020-05-10 10:03:39,69.7,170.31,37.38,80,100,15.68,overcast clouds,0,0
Ihosy,MG,2020-05-10 10:03:39,-22.4,46.12,73.4,55,7,10.07,clear sky,0,0
Blind River,CA,2020-05-10 10:03:39,46.18,-82.96,32.0,96,1,9.17,clear sky,0,0
North Platte,US,2020-05-10 10:00:41,41.12,-100.77,28.4,79,1,4.7,clear sky,0,0
La Ciotat,FR,2020-05-10 10:01:24,43.17,5.6,66.99,84,100,3.0,overcast clouds,0,0
Pittsfield,US,2020-05-10 10:01:38,42.45,-73.25,35.6,64,90,16.11,overcast clouds,0,0
Murbad,IN,2020-05-10 10:03:40,19.25,73.4,91.4,66,40,12.75,scattered clouds,0,0
Taywarah,AF,2020-05-10 10:03:40,33.35,64.42,69.66,21,0,9.91,clear sky,0,0
Manali,IN,2020-05-10 10:03:40,13.17,80.27,95.0,56,40,10.29,scattered clouds,0,0
Necochea,AR,2020-05-10 10:03:40,-38.55,-58.74,52.0,87,78,7.0,broken clouds,0,0
Pangai,TO,2020-05-10 10:03:40,-19.8,-174.35,80.29,85,0,9.44,clear sky,0,0
Constantine,DZ,2020-05-10 10:03:40,36.37,6.61,73.4,60,85,9.17,overcast clouds,0,0
Matamoros,MX,2020-05-10 10:03:40,25.53,-103.25,66.99,64,28,3.74,scattered clouds,0,0
Hazorasp,UZ,2020-05-10 10:00:06,41.32,61.07,87.8,23,28,13.87,scattered clouds,0,0
Hualmay,PE,2020-05-10 10:03:41,-11.1,-77.61,66.16,86,94,8.97,overcast clouds,0,0
Zhezkazgan,KZ,2020-05-10 10:03:41,47.8,67.71,71.6,60,75,11.18,broken clouds,0,0
Chokurdakh,RU,2020-05-10 10:03:41,70.63,147.92,29.12,97,56,12.71,broken clouds,0,0
Broken Hill,AU,2020-05-10 10:03:41,-31.95,141.43,55.4,47,90,9.17,overcast clouds,0,0
Amberg,DE,2020-05-10 10:03:41,49.44,11.86,66.0,77,20,4.7,few clouds,0,0
Itarema,BR,2020-05-10 10:03:41,-2.92,-39.92,77.63,88,87,5.77,light rain,0,0
Mitsamiouli,KM,2020-05-10 10:03:41,-11.38,43.28,87.8,66,20,10.29,few clouds,0,0
Kendari,ID,2020-05-10 10:03:42,-3.94,122.5,79.03,78,94,2.73,overcast clouds,0,0
San Luis,AR,2020-05-10 10:03:42,-33.3,-66.34,56.48,47,0,4.68,clear sky,0,0
Ajaccio,FR,2020-05-10 10:03:42,42.0,8.92,69.8,73,34,5.82,scattered clouds,0,0
Saint-Francois,FR,2020-05-10 10:03:42,46.42,3.91,69.8,56,70,5.82,broken clouds,0,0
Tabou,CI,2020-05-10 10:03:42,4.42,-7.35,84.9,73,18,7.94,light rain,0,0
Bestobe,KZ,2020-05-10 10:03:42,52.5,73.1,78.58,22,8,11.21,clear sky,0,0
Svetlyy,RU,2020-05-10 10:03:42,54.67,20.13,64.4,45,2,6.71,clear sky,0,0
Bethanien,NA,2020-05-10 10:03:43,-26.5,17.16,81.12,18,0,16.55,clear sky,0,0
Quatre Cocos,MU,2020-05-10 10:03:43,-20.21,57.76,80.6,54,40,13.87,scattered clouds,0,0
Aljezur,PT,2020-05-10 10:03:43,37.32,-8.8,68.0,66,22,14.56,light rain,0,0
Egvekinot,RU,2020-05-10 10:03:43,66.32,-179.17,31.35,100,100,12.15,snow,0,0
Metro,ID,2020-05-10 10:03:43,-5.11,105.31,82.72,83,96,5.5,moderate rain,0,0
Valera,VE,2020-05-10 10:03:43,9.32,-70.6,74.61,58,60,5.21,broken clouds,0,0
Capaci,IT,2020-05-10 10:03:43,38.17,13.24,75.99,68,60,12.75,broken clouds,0,0
Vostok,RU,2020-05-10 10:03:44,46.49,135.88,41.34,99,100,2.15,light rain,0,0
Avanigadda,IN,2020-05-10 10:03:44,16.02,80.92,98.47,35,0,11.41,clear sky,0,0
Urumqi,CN,2020-05-10 10:03:44,43.8,87.6,86.0,7,100,11.18,overcast clouds,0,0
Alamos,MX,2020-05-10 10:03:44,27.02,-108.93,72.0,62,0,1.99,clear sky,0,0
Comodoro Rivadavia,AR,2020-05-10 09:59:53,-45.87,-67.5,50.0,57,0,18.34,clear sky,0,0
Penzance,GB,2020-05-10 10:03:44,50.12,-5.54,66.2,68,100,11.41,overcast clouds,0,0
Vilcun,CL,2020-05-10 10:03:44,-38.65,-72.23,48.99,100,75,5.82,broken clouds,0,0
Tuktoyaktuk,CA,2020-05-10 10:03:45,69.45,-133.04,33.93,91,100,15.79,overcast clouds,0,0
Itoman,JP,2020-05-10 10:03:45,26.12,127.67,80.6,88,20,8.05,few clouds,0,0
Rohri,PK,2020-05-10 10:01:30,27.69,68.9,105.8,30,3,4.7,haze,0,0
Horsham,GB,2020-05-10 10:03:45,51.06,-0.33,66.2,55,84,12.75,broken clouds,0,0
Dunedin,NZ,2020-05-10 10:03:04,-45.87,170.5,51.01,93,16,5.01,few clouds,0,0
Morgan City,US,2020-05-10 10:03:45,29.7,-91.21,62.6,77,90,6.93,overcast clouds,0,0
Shangrao,CN,2020-05-10 10:03:46,28.45,117.97,77.45,78,14,5.14,few clouds,0,0
Kharp,RU,2020-05-10 10:03:46,66.8,65.81,35.94,95,100,6.44,overcast clouds,0,0
Padang,ID,2020-05-10 10:03:46,-0.95,100.35,83.93,75,79,5.21,light rain,0,0
Marsa Matruh,EG,2020-05-10 10:03:46,31.35,27.25,73.49,38,0,4.36,clear sky,0,0
Jiutai,CN,2020-05-10 10:03:46,44.15,125.83,68.0,19,40,20.13,sand,0,0
Mayumba,GA,2020-05-10 10:03:46,-3.43,10.66,76.19,92,100,5.77,moderate rain,0,0
Tahoua,NE,2020-05-10 10:03:46,14.89,5.27,95.0,36,88,9.17,overcast clouds,0,0
Novochernorechenskiy,RU,2020-05-10 10:03:47,56.27,91.08,76.06,31,60,5.03,broken clouds,0,0
Walvis Bay,NA,2020-05-10 10:03:47,-22.96,14.51,89.1,18,0,13.02,clear sky,0,0
Vanavara,RU,2020-05-10 10:01:05,60.34,102.28,54.09,39,0,15.17,clear sky,0,0
Tazovskiy,RU,2020-05-10 10:03:47,67.47,78.7,33.08,100,100,7.81,light snow,0,0
Zvishavane,ZW,2020-05-10 10:03:47,-20.33,30.07,71.47,38,45,10.42,scattered clouds,0,0
Ribeira Grande,PT,2020-05-10 10:03:47,38.52,-28.7,60.8,63,20,21.92,few clouds,0,0
Ostersund,SE,2020-05-10 10:03:47,63.18,14.64,33.8,74,100,8.05,overcast clouds,0,0
Kinshasa,CD,2020-05-10 10:02:19,-4.32,15.32,75.2,88,20,4.7,light rain,0,0
Kropotkin,RU,2020-05-10 10:03:48,45.44,40.58,60.01,59,45,14.45,light rain,0,0
High Prairie,CA,2020-05-10 10:03:48,55.43,-116.49,30.36,97,31,5.55,scattered clouds,0,0
Tutoia,BR,2020-05-10 10:03:48,-2.76,-42.27,77.54,87,100,3.67,light rain,0,0
Lar,IN,2020-05-10 10:03:48,26.2,83.97,105.6,12,0,7.38,clear sky,0,0
Sembakung,ID,2020-05-10 10:03:48,3.82,117.25,82.27,85,98,3.18,overcast clouds,0,0
Huntingdon,GB,2020-05-10 10:02:29,52.33,-0.19,55.99,82,96,14.0,overcast clouds,0,0
Mackay,AU,2020-05-10 10:03:49,-21.15,149.2,69.8,88,0,4.7,clear sky,0,0
Raudeberg,NO,2020-05-10 10:03:49,61.99,5.14,36.0,88,45,20.94,scattered clouds,0,0
Mbekenyera,TZ,2020-05-10 10:03:49,-10.0,38.98,81.28,59,0,8.08,clear sky,0,0
Krasnyy Chikoy,RU,2020-05-10 10:03:49,50.36,108.75,53.78,48,100,12.88,overcast clouds,0,0
Bumba,CD,2020-05-10 10:03:49,2.18,22.47,88.03,53,25,3.85,scattered clouds,0,0
Semirom,IR,2020-05-10 10:03:49,31.42,51.57,67.55,29,100,21.88,overcast clouds,0,0
Jalu,LY,2020-05-10 10:03:50,29.03,21.55,87.8,11,0,9.4,clear sky,0,0
Paamiut,GL,2020-05-10 10:03:50,61.99,-49.67,42.3,77,100,14.23,light rain,0,0
Mildura,AU,2020-05-10 10:03:50,-34.2,142.15,50.0,71,75,4.7,broken clouds,0,0
Grindavik,IS,2020-05-10 10:03:50,63.84,-22.43,42.8,66,75,10.29,broken clouds,0,0
Palmer,US,2020-05-10 10:03:50,42.16,-72.33,33.01,93,20,6.93,few clouds,0,0
Luena,AO,2020-05-10 10:03:50,-11.78,19.92,77.0,65,5,11.41,clear sky,0,0
Praia Da Vitoria,PT,2020-05-10 10:03:50,38.73,-27.07,60.8,72,40,23.24,scattered clouds,0,0
Jeremie,HT,2020-05-10 10:03:51,18.65,-74.12,77.94,69,82,4.43,broken clouds,0,0
Ishigaki,JP,2020-05-10 10:03:51,24.34,124.16,82.4,88,40,10.29,scattered clouds,0,0
Sabang,ID,2020-05-10 10:03:51,5.89,95.32,83.73,74,100,11.95,light rain,0,0
Luau,AO,2020-05-10 10:03:51,-10.71,22.22,79.27,44,71,6.69,broken clouds,0,0
Zhigansk,RU,2020-05-10 10:03:51,66.77,123.37,29.89,95,1,5.19,clear sky,0,0
Mabaruma,GY,2020-05-10 10:03:52,8.2,-59.78,72.23,97,64,2.55,broken clouds,0,0
Serik,TR,2020-05-10 10:03:52,36.92,31.1,82.0,33,0,10.29,clear sky,0,0
Takaka,NZ,2020-05-10 10:03:52,-40.85,172.8,55.99,86,100,5.99,overcast clouds,0,0
Moose Jaw,CA,2020-05-10 10:03:52,50.4,-105.53,30.2,58,5,10.29,clear sky,0,0
Havoysund,NO,2020-05-10 10:03:52,71.0,24.66,35.6,47,1,16.11,clear sky,0,0
Kidal,ML,2020-05-10 10:03:53,18.44,1.41,103.71,6,24,4.34,few clouds,0,0
Yershov,RU,2020-05-10 10:03:53,51.35,48.28,63.41,50,15,14.79,few clouds,0,0
Laguna,US,2020-05-10 10:00:21,38.42,-121.42,59.0,76,1,4.7,clear sky,0,0
Eureka,US,2020-05-10 10:00:25,40.8,-124.16,54.0,91,100,1.99,overcast clouds,0,0
Nuqui,CO,2020-05-10 10:03:53,5.71,-77.27,79.72,86,100,4.09,light rain,0,0
Lewiston,US,2020-05-10 10:03:54,44.1,-70.21,35.6,47,20,10.29,few clouds,0,0
Kuusamo,FI,2020-05-10 10:03:54,65.97,29.18,39.2,51,95,13.87,overcast clouds,0,0
Saint-Pierre,RE,2020-05-10 10:03:54,-21.34,55.48,80.6,57,75,17.22,broken clouds,0,0
Huarmey,PE,2020-05-10 10:03:54,-10.07,-78.15,66.7,87,91,7.83,overcast clouds,0,0
Nishihara,JP,2020-05-10 10:03:54,26.18,127.76,80.6,78,40,10.29,scattered clouds,0,0
Brigantine,US,2020-05-10 10:03:54,39.41,-74.36,42.8,48,1,12.75,clear sky,0,0
Xuddur,SO,2020-05-10 10:03:55,4.12,43.89,86.74,54,89,6.31,light rain,0,0
Lucea,JM,2020-05-10 10:03:55,18.45,-78.17,80.6,78,20,4.7,few clouds,0,0
Salcininkai,LT,2020-05-10 10:03:55,54.3,25.38,66.99,36,2,5.82,clear sky,0,0
Timra,SE,2020-05-10 09:59:03,62.49,17.33,41.0,93,100,5.82,light rain,0,0
Norre Alslev,DK,2020-05-10 10:03:55,54.9,11.88,62.6,1,76,5.82,broken clouds,0,0
Perth,AU,2020-05-10 10:01:52,-31.93,115.83,66.2,52,0,10.29,clear sky,0,0
Arraial Do Cabo,BR,2020-05-10 10:03:55,-22.97,-42.03,62.6,93,40,4.7,scattered clouds,0,0
Gazojak,TM,2020-05-10 10:03:56,41.19,61.4,88.43,19,17,15.08,few clouds,0,0
Bowen,AU,2020-05-10 10:03:56,-20.02,148.23,69.8,88,0,6.93,clear sky,0,0
Chilca,PE,2020-05-10 10:03:56,-12.52,-76.74,68.0,77,40,5.82,scattered clouds,0,0
Bagotville,AU,2020-05-10 10:03:56,-28.98,153.42,68.0,72,40,9.17,scattered clouds,0,0
Basco,PH,2020-05-10 10:03:56,20.45,121.97,84.45,70,75,4.18,broken clouds,0,0
Parambu,BR,2020-05-10 09:59:27,-6.21,-40.69,69.58,88,99,7.23,overcast clouds,0,0
Kachiry,KZ,2020-05-10 10:03:56,53.07,76.1,79.95,27,0,11.07,clear sky,0,0
Hovd,MN,2020-05-10 10:03:56,48.01,91.64,61.74,24,0,7.99,clear sky,0,0
Haines Junction,CA,2020-05-10 10:03:57,60.75,-137.51,49.46,64,1,3.22,clear sky,0,0
Palmas,BR,2020-05-10 10:03:57,-10.21,-48.36,75.2,83,75,4.25,broken clouds,0,0
Boende,CD,2020-05-10 10:03:57,-0.22,20.87,74.37,91,100,3.29,overcast clouds,0,0
Eichenzell,DE,2020-05-10 10:03:57,50.49,9.7,68.0,60,95,1.99,light rain,0,0
Inverell,AU,2020-05-10 10:03:57,-29.78,151.12,48.99,70,0,1.01,clear sky,0,0
Sawtell,AU,2020-05-10 10:03:58,-30.38,153.1,60.8,55,0,12.75,clear sky,0,0
Kijang,KR,2020-05-10 10:03:21,35.24,129.21,69.8,68,21,11.41,few clouds,0,0
Antalaha,MG,2020-05-10 10:03:58,-14.9,50.28,83.23,58,14,15.32,few clouds,0,0
Prieska,ZA,2020-05-10 10:03:58,-29.66,22.75,76.15,18,0,3.69,clear sky,0,0
Vakhtan,RU,2020-05-10 10:03:58,57.97,46.69,66.43,72,49,8.63,moderate rain,0,0
Novobiryusinskiy,RU,2020-05-10 10:03:58,56.96,97.71,72.72,46,70,11.79,broken clouds,0,0
Dingle,PH,2020-05-10 10:03:59,11.0,122.67,86.59,57,57,7.23,broken clouds,0,0
Asau,RO,2020-05-10 10:03:59,46.43,26.4,71.6,43,20,4.7,few clouds,0,0
Touros,BR,2020-05-10 10:03:59,-5.2,-35.46,71.6,100,20,4.7,few clouds,0,0
Erenhot,CN,2020-05-10 10:03:59,43.65,111.98,54.99,32,15,21.5,few clouds,0,0
Qui Nhon,VN,2020-05-10 09:59:00,13.77,109.23,83.77,76,75,13.04,broken clouds,0,0
Kinwat,IN,2020-05-10 10:03:59,19.63,78.2,94.87,28,85,16.26,moderate rain,0,0
Marand,IR,2020-05-10 10:04:00,38.43,45.77,68.0,32,40,24.16,scattered clouds,0,0
Luganville,VU,2020-05-10 10:04:00,-15.53,167.17,76.64,80,33,9.57,scattered clouds,0,0
Tupik,RU,2020-05-10 10:04:00,54.43,119.93,45.1,59,100,6.67,overcast clouds,0,0
Ewa Beach,US,2020-05-10 10:04:00,21.32,-158.01,75.2,64,20,5.82,few clouds,0,0
Myitkyina,MM,2020-05-10 10:04:00,25.38,97.4,102.47,18,0,3.87,clear sky,0,0
Quang Ngai,VN,2020-05-10 10:04:00,15.12,108.8,87.42,62,49,9.28,scattered clouds,0,0
Wattegama,LK,2020-05-10 10:04:01,6.8,81.48,89.6,79,40,10.29,scattered clouds,0,0
Damietta,EG,2020-05-10 10:04:01,31.42,31.81,71.56,52,0,10.04,clear sky,0,0
Kommunisticheskiy,RU,2020-05-10 10:04:01,61.68,64.48,79.02,26,72,11.74,broken clouds,0,0
Meihekou,CN,2020-05-10 10:04:01,42.53,125.68,63.09,37,27,14.74,scattered clouds,0,0
Quelimane,MZ,2020-05-10 10:04:01,-17.88,36.89,77.0,83,75,11.41,moderate rain,0,0
Rosignol,GY,2020-05-10 10:04:01,6.28,-57.53,76.51,88,35,6.26,light rain,0,0
Kargasok,RU,2020-05-10 10:04:02,59.06,80.86,82.35,25,12,8.66,few clouds,0,0
Tambopata,PE,2020-05-10 10:00:11,-12.73,-69.18,65.14,88,17,1.48,few clouds,0,0
Vao,NC,2020-05-10 10:04:02,-22.67,167.48,72.45,64,72,11.72,broken clouds,0,0
Keighley,GB,2020-05-10 10:04:02,53.87,-1.91,48.0,83,98,8.01,overcast clouds,0,0
Calhoun,US,2020-05-10 10:04:02,42.25,-85.0,46.0,42,90,4.7,overcast clouds,0,0
Gewane,ET,2020-05-10 10:04:02,10.17,40.65,97.27,26,70,9.53,broken clouds,0,0
Vierzon,FR,2020-05-10 10:04:03,47.21,2.06,68.0,77,75,5.82,broken clouds,0,0
Maragogi,BR,2020-05-10 10:04:03,-9.01,-35.22,75.99,85,89,3.91,overcast clouds,0,0
Los Llanos De Aridane,ES,2020-05-10 10:04:03,28.66,-17.92,75.2,60,20,5.82,few clouds,0,0
Goulburn,AU,2020-05-10 10:04:03,-34.75,149.72,42.01,81,0,7.43,clear sky,0,0
Yerbogachen,RU,2020-05-10 10:04:03,61.28,108.01,43.84,57,61,22.79,broken clouds,0,0
Alenquer,BR,2020-05-10 10:04:03,-1.94,-54.74,78.8,88,40,4.7,scattered clouds,0,0
Barcelos,PT,2020-05-10 10:04:03,41.54,-8.62,62.01,77,40,5.82,scattered clouds,0,0
Toamasina,MG,2020-05-10 10:04:04,-18.17,49.38,73.4,94,75,18.34,light rain,0,0
Smithers,CA,2020-05-10 10:00:29,54.78,-127.17,51.8,37,1,11.41,clear sky,0,0
Findlay,US,2020-05-10 10:04:04,41.04,-83.65,43.0,55,1,9.17,clear sky,0,0
Siilinjarvi,FI,2020-05-10 10:04:04,63.08,27.67,51.8,43,33,12.75,scattered clouds,0,0
Miles City,US,2020-05-10 10:04:00,46.41,-105.84,35.6,100,75,10.29,broken clouds,0,0
Port Hawkesbury,CA,2020-05-10 10:04:04,45.62,-61.35,35.01,95,90,17.22,light rain,0,0
Pangoa,PE,2020-05-10 10:04:04,-12.12,-73.0,63.86,89,81,1.88,broken clouds,0,0
Beidao,CN,2020-05-10 10:04:05,34.57,105.89,75.43,32,42,2.55,scattered clouds,0,0
Tondon,GN,2020-05-10 10:04:05,10.37,-13.35,79.5,81,100,3.94,light rain,0,0
Neiafu,TO,2020-05-10 10:04:05,-18.65,-173.98,81.23,83,0,5.57,clear sky,0,0
Saint-Augustin,CA,2020-05-10 10:02:41,51.23,-58.65,33.64,91,97,10.58,overcast clouds,0,0
Milkovo,RU,2020-05-10 10:04:05,54.72,158.62,31.98,89,58,8.99,broken clouds,0,0
Guerrero Negro,MX,2020-05-10 10:04:05,27.98,-114.06,62.47,91,0,6.98,clear sky,0,0
Baykit,RU,2020-05-10 10:04:06,61.67,96.37,54.59,38,68,9.51,broken clouds,0,0
Maarianhamina,AX,2020-05-10 10:04:06,60.1,19.93,50.0,71,100,25.28,overcast clouds,0,0
Birjand,IR,2020-05-10 10:04:06,32.87,59.22,86.0,9,75,11.41,broken clouds,0,0
San Jose Del Guaviare,CO,2020-05-10 10:04:06,2.57,-72.65,70.9,97,69,2.26,broken clouds,0,0
Dong Hoi,VN,2020-05-10 10:04:06,17.48,106.6,86.47,73,35,8.55,light rain,0,0
Njinikom,CM,2020-05-10 10:04:06,6.23,10.28,71.01,81,100,2.53,overcast clouds,0,0
Gari,RU,2020-05-10 10:04:07,59.43,62.35,78.3,25,100,9.75,overcast clouds,0,0
Ola,RU,2020-05-10 10:04:07,59.58,151.28,38.77,73,100,10.94,overcast clouds,0,0
Acari,PE,2020-05-10 10:04:07,-15.43,-74.62,68.41,71,58,3.02,broken clouds,0,0
Bubaque,GW,2020-05-10 10:04:07,11.28,-15.83,77.61,76,76,10.58,broken clouds,0,0
Oranjemund,NA,2020-05-10 10:04:07,-28.55,16.43,85.77,20,0,12.82,clear sky,0,0
Nioro,GM,2020-05-10 10:04:07,13.35,-15.75,84.42,40,70,7.11,broken clouds,0,0
Bam,IR,2020-05-10 10:01:52,29.11,58.36,98.89,8,1,6.35,clear sky,0,0
Aksarka,RU,2020-05-10 10:04:08,66.56,67.8,36.68,97,100,12.03,overcast clouds,0,0
Kalmunai,LK,2020-05-10 10:04:08,7.42,81.82,88.63,66,83,8.23,broken clouds,0,0
Palitana,IN,2020-05-10 10:04:08,21.52,71.83,108.01,13,0,18.63,clear sky,0,0
Mogadishu,SO,2020-05-10 10:02:18,2.04,45.34,87.8,58,75,12.75,broken clouds,0,0
Luleburgaz,TR,2020-05-10 10:04:08,41.4,27.36,69.8,40,0,9.17,clear sky,0,0
Galesong,ID,2020-05-10 10:04:08,-5.32,119.37,86.0,74,20,5.82,few clouds,0,0
Naze,JP,2020-05-10 10:04:09,28.37,129.48,75.2,94,75,13.87,broken clouds,0,0
Praya,CV,2020-05-10 10:00:14,14.92,-23.51,73.4,69,75,13.87,broken clouds,0,0
Kamaishi,JP,2020-05-10 10:04:09,39.27,141.88,60.8,100,75,5.82,light intensity shower rain,0,0
