,City,Country,Date,Lat,Lng,Max Temp,Humidity,Cloudiness,Wind Speed,Current Description,Rain Inches (last 3 hrs),Snow Inches (last 3 hrs)
0,Margate,GB,2020-05-09 21:16:11,51.38,1.39,57.0,80,61,13.2,broken clouds,0,0
1,Bethel,US,2020-05-09 21:18:54,41.37,-73.41,42.01,44,90,14.99,overcast clouds,0,0
2,Bredasdorp,ZA,2020-05-09 21:18:55,-34.53,20.04,60.8,93,0,3.36,clear sky,0,0
3,Punta Arenas,CL,2020-05-09 21:17:58,-53.15,-70.92,44.6,87,75,4.7,broken clouds,0,0
4,Hobart,AU,2020-05-09 21:18:55,-42.88,147.33,42.8,81,40,8.05,scattered clouds,0,0
5,Hithadhoo,MV,2020-05-09 21:18:55,-0.6,73.08,84.67,78,94,12.66,light rain,0,0
6,Rio Grande,BR,2020-05-09 21:18:55,-32.03,-52.1,69.8,56,6,9.17,clear sky,0,0
7,Tuktoyaktuk,CA,2020-05-09 21:18:55,69.45,-133.04,33.8,74,20,23.04,few clouds,0,0
8,New Norfolk,AU,2020-05-09 21:18:55,-42.78,147.06,41.0,85,18,3.15,few clouds,0,0
9,Lompoc,US,2020-05-09 21:18:56,34.64,-120.46,73.0,82,90,9.17,overcast clouds,0,0
10,Rikitea,PF,2020-05-09 21:18:56,-23.12,-134.97,75.51,69,83,2.98,broken clouds,0,0
11,Ushuaia,AR,2020-05-09 21:14:03,-54.8,-68.3,48.2,70,75,4.7,broken clouds,0,0
12,Talaya,RU,2020-05-09 21:18:56,61.38,152.75,28.83,95,100,12.12,overcast clouds,0,0
13,Golden Gate,US,2020-05-09 21:18:56,26.19,-81.7,91.0,58,1,9.17,clear sky,0,0
14,Saskylakh,RU,2020-05-09 21:18:56,71.92,114.08,20.55,97,100,14.5,snow,0,0
15,Hermanus,ZA,2020-05-09 21:18:57,-34.42,19.23,61.0,79,0,1.01,clear sky,0,0
16,Kalabo,ZM,2020-05-09 21:18:57,-14.97,22.68,64.62,61,0,3.96,clear sky,0,0
17,Alta Floresta,BR,2020-05-09 21:18:57,-9.88,-56.09,89.6,55,40,5.82,scattered clouds,0,0
18,Busselton,AU,2020-05-09 21:18:57,-33.65,115.33,39.0,74,0,3.85,clear sky,0,0
19,Vaini,TO,2020-05-09 21:18:57,-21.2,-175.2,82.4,88,75,13.87,broken clouds,0,0
20,Cidreira,BR,2020-05-09 21:18:57,-30.18,-50.21,64.33,76,0,7.96,clear sky,0,0
21,Saldanha,ZA,2020-05-09 21:18:57,-33.01,17.94,60.8,67,0,6.93,clear sky,0,0
22,Tasiilaq,GL,2020-05-09 21:18:58,65.61,-37.64,32.0,88,100,14.99,overcast clouds,0,0
23,Bluff,NZ,2020-05-09 21:16:03,-46.6,168.33,52.32,77,75,9.06,broken clouds,0,0
24,Jamestown,US,2020-05-09 21:18:58,42.1,-79.24,37.0,64,90,17.22,light rain,0,0
25,Castro,BR,2020-05-09 21:18:58,-24.79,-50.01,57.07,77,0,4.09,clear sky,0,0
26,Nikolskoye,RU,2020-05-09 21:18:58,59.7,30.79,42.8,56,0,4.47,clear sky,0,0
27,Lagoa,PT,2020-05-09 21:18:58,39.05,-27.98,63.66,88,100,25.08,overcast clouds,0,0
28,Beruwala,LK,2020-05-09 21:18:59,6.48,79.98,81.28,84,100,0.65,overcast clouds,0,0
29,Avarua,CK,2020-05-09 21:18:59,-21.21,-159.78,82.4,78,13,18.34,few clouds,0,0
30,Qaqortoq,GL,2020-05-09 21:18:59,60.72,-46.03,51.8,21,92,21.92,overcast clouds,0,0
31,San Juan,AR,2020-05-09 21:14:38,-31.54,-68.54,77.72,23,0,10.98,clear sky,0,0
32,Ust-Ordynskiy,RU,2020-05-09 21:18:59,52.8,104.75,32.0,77,47,4.47,scattered clouds,0,0
33,Port Alfred,ZA,2020-05-09 21:19:00,-33.59,26.89,61.0,96,1,5.01,clear sky,0,0
34,Albany,US,2020-05-09 21:15:08,42.6,-73.97,44.01,37,79,1.99,broken clouds,0,0
35,Husavik,IS,2020-05-09 21:19:00,66.04,-17.34,32.0,78,0,5.82,clear sky,0,0
36,Chokurdakh,RU,2020-05-09 21:19:00,70.63,147.92,23.02,98,52,4.9,broken clouds,0,0
37,Vestmannaeyjar,IS,2020-05-09 21:19:00,63.44,-20.27,37.74,78,34,13.09,scattered clouds,0,0
38,Hilo,US,2020-05-09 21:14:53,19.73,-155.09,78.8,65,40,6.93,scattered clouds,0,0
39,Grand Gaube,MU,2020-05-09 21:19:01,-20.01,57.66,71.01,82,0,1.01,clear sky,0,0
40,Araouane,ML,2020-05-09 21:19:01,18.9,-3.53,92.75,10,3,6.06,clear sky,0,0
41,Kodiak,US,2020-05-09 21:19:01,57.79,-152.41,44.6,87,90,13.87,light rain,0,0
42,Kijang,KR,2020-05-09 21:19:01,35.24,129.21,59.0,82,75,11.41,broken clouds,0,0
43,Kapaa,US,2020-05-09 21:19:01,22.08,-159.32,78.8,65,40,16.11,scattered clouds,0,0
44,Progreso,MX,2020-05-09 21:19:01,21.28,-89.67,87.8,62,75,11.41,broken clouds,0,0
45,Mataura,NZ,2020-05-09 21:19:01,-46.19,168.86,47.55,80,63,3.83,broken clouds,0,0
46,Cockburn Town,TC,2020-05-09 21:18:51,21.46,-71.14,81.36,82,30,14.05,scattered clouds,0,0
47,Ponta Delgada,PT,2020-05-09 21:19:02,37.73,-25.67,62.6,88,75,23.04,broken clouds,0,0
48,Victoria,HK,2020-05-09 21:15:28,22.29,114.16,82.0,85,78,4.0,broken clouds,0,0
49,Barrow,US,2020-05-09 21:14:26,71.29,-156.79,28.4,86,1,8.05,clear sky,0,0
50,Tinos,GR,2020-05-09 21:19:02,37.54,25.16,64.0,51,0,6.93,clear sky,0,0
51,Umm Kaddadah,SD,2020-05-09 21:19:02,13.6,26.69,84.24,11,71,15.43,broken clouds,0,0
52,Coihaique,CL,2020-05-09 21:17:36,-45.58,-72.07,46.4,87,90,3.36,light intensity shower rain,0,0
53,Mount Gambier,AU,2020-05-09 21:16:26,-37.83,140.77,41.0,93,75,4.81,broken clouds,0,0
54,Dehloran,IR,2020-05-09 21:19:03,32.69,47.27,85.98,28,100,9.4,overcast clouds,0,0
55,Carnarvon,AU,2020-05-09 21:18:48,-24.87,113.63,75.06,42,100,13.47,overcast clouds,0,0
56,Bengkulu,ID,2020-05-09 21:19:03,-3.8,102.27,76.19,92,100,5.32,light rain,0,0
57,Rabo De Peixe,PT,2020-05-09 21:19:03,37.8,-25.58,62.6,88,75,23.04,broken clouds,0,0
58,Leningradskiy,RU,2020-05-09 21:15:07,69.38,178.42,24.85,95,100,7.7,overcast clouds,0,0
59,Santana Do Matos,BR,2020-05-09 21:19:03,-5.96,-36.66,79.27,73,42,10.67,light rain,0,0
60,Mar Del Plata,AR,2020-05-09 21:15:33,-38.0,-57.56,64.4,68,0,18.34,clear sky,0,0
61,Vostok,RU,2020-05-09 21:19:03,46.49,135.88,44.76,95,100,3.83,light rain,0,0
62,Lensk,RU,2020-05-09 21:19:04,60.73,114.93,35.87,90,100,6.73,light snow,0,0
63,San Carlos De Bariloche,AR,2020-05-09 21:19:04,-41.15,-71.31,48.99,87,75,3.36,moderate rain,0,0
64,Sao Bento Do Sul,BR,2020-05-09 21:19:04,-26.25,-49.38,55.0,92,0,1.01,clear sky,0,0
65,Deputatskiy,RU,2020-05-09 21:19:04,69.3,139.9,27.79,99,99,4.12,overcast clouds,0,0
66,Dingle,PH,2020-05-09 21:19:04,11.0,122.67,76.91,86,84,5.06,broken clouds,0,0
67,Tuatapere,NZ,2020-05-09 21:19:04,-46.13,167.68,53.62,82,86,6.69,overcast clouds,0,0
68,Asau,RO,2020-05-09 21:17:39,46.43,26.4,51.01,86,66,2.66,broken clouds,0,0
69,Nanortalik,GL,2020-05-09 21:19:05,60.14,-45.24,43.11,62,62,15.77,broken clouds,0,0
70,Omboue,GA,2020-05-09 21:17:05,-1.57,9.26,77.54,85,69,3.38,broken clouds,0,0
71,Kenai,US,2020-05-09 21:19:05,60.55,-151.26,60.8,38,40,19.46,scattered clouds,0,0
72,Puerto Ayora,EC,2020-05-09 21:19:05,-0.74,-90.35,84.2,70,20,20.8,few clouds,0,0
73,Andenes,NO,2020-05-09 21:19:05,69.31,16.12,30.2,86,100,12.75,light snow,0,0
74,Kaitangata,NZ,2020-05-09 21:19:05,-46.28,169.85,50.0,75,95,1.99,overcast clouds,0,0
75,Ponta Do Sol,PT,2020-05-09 21:19:06,32.67,-17.1,68.0,68,40,4.7,scattered clouds,0,0
76,Guozhen,CN,2020-05-09 21:19:06,34.37,107.36,54.07,43,0,4.21,clear sky,0,0
77,Upernavik,GL,2020-05-09 21:19:06,72.79,-56.15,20.55,92,100,11.16,overcast clouds,0,0
78,Atuona,PF,2020-05-09 21:19:06,-9.8,-139.03,80.91,78,48,17.02,scattered clouds,0,0
79,Torbay,CA,2020-05-09 21:19:06,47.67,-52.73,46.0,87,90,25.28,overcast clouds,0,0
80,Bambous Virieux,MU,2020-05-09 21:19:06,-20.34,57.76,73.4,83,40,9.17,scattered clouds,0,0
81,Solana Beach,US,2020-05-09 21:19:06,32.99,-117.27,75.99,73,90,8.05,overcast clouds,0,0
82,Flinders,AU,2020-05-09 21:18:47,-34.58,150.86,51.01,64,0,1.01,clear sky,0,0
83,Bud,US,2020-05-09 21:15:01,39.45,-86.18,55.0,30,1,8.05,clear sky,0,0
84,Fortuna,US,2020-05-09 21:16:21,40.6,-124.16,62.01,82,1,11.41,clear sky,0,0
85,Dikson,RU,2020-05-09 21:19:07,73.51,80.55,26.06,97,92,18.37,overcast clouds,0,0
86,Faya,SA,2020-05-09 21:19:07,18.39,42.45,68.0,77,0,1.01,clear sky,0,0
87,Horodnye,UA,2020-05-09 21:19:07,45.89,28.85,54.9,72,26,1.03,scattered clouds,0,0
88,Thompson,CA,2020-05-09 21:17:17,55.74,-97.86,35.6,43,75,14.99,broken clouds,0,0
89,Yellowknife,CA,2020-05-09 21:19:07,62.46,-114.35,35.6,51,20,11.41,few clouds,0,0
90,Byron Bay,AU,2020-05-09 21:17:32,-28.65,153.62,62.01,93,0,2.24,clear sky,0,0
91,Puerto Escondido,MX,2020-05-09 21:19:08,15.85,-97.07,86.0,70,5,9.17,clear sky,0,0
92,Chuy,UY,2020-05-09 21:19:08,-33.7,-53.46,59.22,65,87,6.38,overcast clouds,0,0
93,Pinawa,CA,2020-05-09 21:19:08,50.15,-95.88,49.01,44,96,12.48,overcast clouds,0,0
94,Ust-Nera,RU,2020-05-09 21:19:08,64.57,143.2,28.81,92,71,6.04,broken clouds,0,0
95,Berlevag,NO,2020-05-09 21:19:08,70.86,29.09,31.57,90,97,5.61,overcast clouds,0,0
96,Severo-Kurilsk,RU,2020-05-09 21:19:08,50.68,156.12,33.37,91,96,18.25,overcast clouds,0,0
97,Qaanaaq,GL,2020-05-09 21:19:09,77.48,-69.36,13.08,86,56,3.2,broken clouds,0,0
98,Pevek,RU,2020-05-09 21:15:07,69.7,170.31,38.16,74,100,9.98,overcast clouds,0,0
99,Puerto Princesa,PH,2020-05-09 21:19:09,9.74,118.74,80.6,83,20,2.24,few clouds,0,0
100,Ormara,PK,2020-05-09 21:19:09,25.21,64.64,81.86,81,11,8.68,few clouds,0,0
101,Nivala,FI,2020-05-09 21:19:09,63.92,24.97,34.0,76,0,4.0,clear sky,0,0
102,Longyearbyen,SJ,2020-05-09 21:19:09,78.22,15.64,17.6,57,20,16.11,few clouds,0,0
103,Karachi,PK,2020-05-09 21:19:09,24.91,67.08,84.2,74,40,17.22,scattered clouds,0,0
104,Colares,PT,2020-05-09 21:19:10,38.8,-9.45,62.01,77,66,13.27,light rain,0,0
105,Clyde River,CA,2020-05-09 21:19:10,70.47,-68.59,14.0,85,90,16.11,overcast clouds,0,0
106,Bend,US,2020-05-09 21:18:30,44.06,-121.32,78.8,19,1,10.29,clear sky,0,0
107,Panacan,PH,2020-05-09 21:19:10,9.25,118.41,80.6,83,20,2.24,few clouds,0,0
108,Talnakh,RU,2020-05-09 21:17:33,69.49,88.4,30.2,86,75,20.13,broken clouds,0,0
109,Rock Sound,BS,2020-05-09 21:19:10,24.9,-76.2,78.55,79,100,6.71,light rain,0,0
110,Cape Town,ZA,2020-05-09 21:15:01,-33.93,18.42,60.8,93,75,5.82,mist,0,0
111,Kahului,US,2020-05-09 21:19:10,20.89,-156.47,78.8,65,40,17.22,scattered clouds,0,0
112,Boende,CD,2020-05-09 21:19:11,-0.22,20.87,73.02,96,100,2.24,overcast clouds,0,0
113,Barghat,IN,2020-05-09 21:19:11,22.03,79.72,85.5,24,83,7.76,broken clouds,0,0
114,Rocha,UY,2020-05-09 21:19:11,-34.48,-54.33,56.08,76,62,7.49,broken clouds,0,0
115,Wamba,NG,2020-05-09 21:19:11,8.93,8.6,75.67,75,100,4.94,overcast clouds,0,0
116,Iqaluit,CA,2020-05-09 21:19:11,63.75,-68.51,39.2,64,75,8.05,broken clouds,0,0
117,Spirit River,CA,2020-05-09 21:19:11,55.78,-118.84,53.6,32,20,17.22,few clouds,0,0
118,Arraial Do Cabo,BR,2020-05-09 21:19:12,-22.97,-42.03,69.8,77,0,4.7,clear sky,0,0
119,Alpena,US,2020-05-09 21:19:12,45.06,-83.43,46.0,44,90,10.29,overcast clouds,0,0
120,Farim,GW,2020-05-09 21:19:12,12.48,-15.22,89.6,49,77,13.87,broken clouds,0,0
121,Indulang,PH,2020-05-09 21:19:12,8.09,124.58,79.0,83,98,3.0,overcast clouds,0,0
122,Mabay,PH,2020-05-09 21:19:12,6.06,124.47,80.38,77,100,3.65,light rain,0,0
123,Kantunilkin,MX,2020-05-09 21:19:12,21.09,-87.45,80.6,78,90,8.05,overcast clouds,0,0
124,Samfya,ZM,2020-05-09 21:19:12,-11.36,29.56,63.59,63,8,9.15,clear sky,0,0
125,Touros,BR,2020-05-09 21:19:13,-5.2,-35.46,80.6,78,40,10.29,scattered clouds,0,0
126,Airai,TL,2020-05-09 21:19:13,-8.93,125.41,56.43,100,100,3.47,overcast clouds,0,0
127,San Cristobal,VE,2020-05-09 21:19:13,7.77,-72.22,86.0,48,75,25.28,broken clouds,0,0
128,Pindiga,NG,2020-05-09 21:19:13,9.98,10.93,86.32,46,81,11.34,broken clouds,0,0
129,Nisia Floresta,BR,2020-05-09 21:19:13,-6.09,-35.21,80.6,78,40,10.29,scattered clouds,0,0
130,Sharjah,AE,2020-05-09 21:17:09,25.36,55.4,82.4,83,33,6.93,scattered clouds,0,0
131,Yeovil,GB,2020-05-09 21:16:52,50.94,-2.63,60.8,59,100,4.7,overcast clouds,0,0
132,Ola,RU,2020-05-09 21:19:14,59.58,151.28,36.01,78,94,8.03,overcast clouds,0,0
133,Avera,US,2020-05-09 21:18:47,33.19,-82.53,68.0,32,1,6.93,clear sky,0,0
134,Yar-Sale,RU,2020-05-09 21:19:14,66.83,70.83,33.39,92,93,6.89,overcast clouds,0,0
135,Santiago Del Estero,AR,2020-05-09 21:19:14,-27.8,-64.26,74.26,41,0,7.96,clear sky,0,0
136,Kasamwa,TZ,2020-05-09 21:19:14,-2.85,32.43,64.6,86,14,5.61,few clouds,0,0
137,Hisor,TJ,2020-05-09 21:19:14,38.52,68.55,55.4,87,40,2.24,scattered clouds,0,0
138,Pitimbu,BR,2020-05-09 21:19:14,-7.47,-34.81,78.8,78,20,8.05,few clouds,0,0
139,Mahebourg,MU,2020-05-09 21:19:15,-20.41,57.7,73.4,83,40,9.17,scattered clouds,0,0
140,Palimbang,PH,2020-05-09 21:19:15,6.21,124.19,80.28,78,100,3.09,light rain,0,0
141,Tigil,RU,2020-05-09 21:19:15,57.8,158.67,32.45,97,100,19.82,light snow,0,0
142,Staraya Toropa,RU,2020-05-09 21:19:15,56.28,31.67,45.7,84,32,4.45,scattered clouds,0,0
143,Nemuro,JP,2020-05-09 21:19:15,43.32,145.57,46.54,74,100,10.92,overcast clouds,0,0
144,Lata,PT,2020-05-09 21:19:15,40.16,-8.33,57.0,93,29,1.99,scattered clouds,0,0
145,Katsuura,JP,2020-05-09 21:19:16,35.13,140.3,66.0,92,78,10.0,broken clouds,0,0
146,Saint George,US,2020-05-09 21:17:28,37.1,-113.58,93.0,9,1,3.36,clear sky,0,0
147,Zhemtala,RU,2020-05-09 21:19:16,43.28,43.66,46.4,93,75,2.24,light intensity shower rain,0,0
148,Znamenskoye,RU,2020-05-09 21:19:16,57.13,73.83,58.5,49,0,4.09,clear sky,0,0
149,Deep River,CA,2020-05-09 21:19:16,46.1,-77.5,39.2,38,90,11.41,overcast clouds,0,0
150,Klaksvik,FO,2020-05-09 21:19:16,62.23,-6.59,30.2,68,39,21.92,light snow,0,0
151,Alofi,NU,2020-05-09 21:19:16,-19.06,-169.92,82.4,78,44,9.17,scattered clouds,0,0
152,Butajira,ET,2020-05-09 21:19:17,8.12,38.37,61.79,63,0,5.08,clear sky,0,0
153,Magadan,RU,2020-05-09 21:19:17,59.57,150.8,35.8,78,51,9.66,broken clouds,0,0
154,Lewistown,US,2020-05-09 21:18:56,40.6,-77.57,41.0,44,40,21.92,scattered clouds,0,0
155,La Serena,CL,2020-05-09 21:15:56,-29.91,-71.25,57.2,82,75,6.93,broken clouds,0,0
156,Mingshui,CN,2020-05-09 21:19:17,36.72,117.5,57.99,85,3,5.14,clear sky,0,0
157,Lebu,CL,2020-05-09 21:19:17,-37.62,-73.65,58.06,80,100,17.02,overcast clouds,0,0
158,Manturovo,RU,2020-05-09 21:19:18,58.34,44.76,49.93,98,100,7.14,overcast clouds,0,0
159,Girard,US,2020-05-09 21:19:18,41.15,-80.7,44.01,38,90,11.41,overcast clouds,0,0
160,Aripuana,BR,2020-05-09 21:19:18,-9.17,-60.63,84.07,71,91,1.21,overcast clouds,0,0
161,Acapulco,MX,2020-05-09 21:19:12,16.86,-99.89,87.8,66,5,8.05,clear sky,0,0
162,Hambantota,LK,2020-05-09 21:19:18,6.12,81.12,81.48,84,100,6.89,overcast clouds,0,0
163,Krasnooktyabrskiy,RU,2020-05-09 21:19:18,44.93,38.37,51.01,76,10,1.99,clear sky,0,0
164,Sao Filipe,CV,2020-05-09 21:19:18,14.9,-24.5,74.77,74,95,9.91,overcast clouds,0,0
165,Geraldton,AU,2020-05-09 21:19:19,-28.77,114.6,60.8,44,70,8.05,broken clouds,0,0
166,Gobabis,NA,2020-05-09 21:19:19,-22.45,18.97,59.0,38,0,3.36,clear sky,0,0
167,Ostrovnoy,RU,2020-05-09 21:19:19,68.05,39.51,34.29,88,100,3.09,overcast clouds,0,0
168,Vilani,LV,2020-05-09 21:19:19,56.55,26.92,48.13,81,86,4.63,overcast clouds,0,0
169,Narsaq,GL,2020-05-09 21:19:19,60.92,-46.05,51.8,21,59,21.92,broken clouds,0,0
170,Alexandria,EG,2020-05-09 21:16:07,31.22,29.96,66.2,72,20,9.17,few clouds,0,0
171,Creel,MX,2020-05-09 21:19:20,27.75,-107.63,72.09,23,18,11.5,few clouds,0,0
172,La Ronge,CA,2020-05-09 21:19:20,55.1,-105.28,44.6,28,20,8.05,few clouds,0,0
173,Kavaratti,IN,2020-05-09 21:19:05,10.57,72.64,85.42,72,0,9.08,clear sky,0,0
174,Ahipara,NZ,2020-05-09 21:19:20,-35.17,173.17,59.77,76,99,5.77,overcast clouds,0,0
175,Kiunga,PG,2020-05-09 21:19:20,-6.12,141.29,74.21,98,78,1.52,broken clouds,0,0
176,Sechura,PE,2020-05-09 21:19:20,-5.56,-80.82,80.35,58,9,14.45,clear sky,0,0
177,Qui Nhon,VN,2020-05-09 21:19:20,13.77,109.23,78.26,86,81,3.67,broken clouds,0,0
178,Kungurtug,RU,2020-05-09 21:19:21,50.6,97.52,32.38,83,74,0.56,broken clouds,0,0
179,Pisco,PE,2020-05-09 21:19:21,-13.7,-76.22,73.4,69,12,8.05,few clouds,0,0
180,Cabedelo,BR,2020-05-09 21:19:21,-6.98,-34.83,78.8,78,20,8.05,few clouds,0,0
181,Ambon,ID,2020-05-09 21:19:21,-3.7,128.18,77.0,94,20,8.05,few clouds,0,0
182,Beringovskiy,RU,2020-05-09 21:19:21,63.05,179.32,33.03,95,100,36.62,snow,0,0
183,Karaton,ID,2020-05-09 21:19:21,-6.34,106.1,82.4,83,40,5.82,scattered clouds,0,0
184,Ariquemes,BR,2020-05-09 21:19:21,-9.91,-63.04,83.01,73,7,2.21,clear sky,0,0
185,Soyo,AO,2020-05-09 21:19:22,-6.13,12.37,79.81,90,29,3.4,scattered clouds,0,0
186,Kampot,KH,2020-05-09 21:19:22,10.62,104.18,86.0,79,20,4.7,few clouds,0,0
187,Esqueda,MX,2020-05-09 21:19:22,30.72,-109.58,85.06,20,57,2.26,broken clouds,0,0
188,Krotoszyn,PL,2020-05-09 21:19:22,51.7,17.44,57.0,59,100,5.53,overcast clouds,0,0
189,Grand Junction,US,2020-05-09 21:19:22,39.06,-108.55,73.4,10,1,9.17,clear sky,0,0
190,Mitsamiouli,KM,2020-05-09 21:19:22,-11.38,43.28,81.27,79,79,15.46,light rain,0,0
191,Nizhniy Tsasuchey,RU,2020-05-09 21:19:22,50.52,115.13,40.12,60,2,13.67,clear sky,0,0
192,Meulaboh,ID,2020-05-09 21:19:23,4.14,96.13,77.47,89,100,4.09,light rain,0,0
193,Provideniya,RU,2020-05-09 21:19:23,64.38,-173.3,39.15,76,100,25.64,overcast clouds,0,0
194,Mehamn,NO,2020-05-09 21:19:23,71.04,27.85,30.22,90,89,6.2,overcast clouds,0,0
195,Guadalupe Y Calvo,MX,2020-05-09 21:19:23,26.1,-106.97,75.78,18,1,13.73,clear sky,0,0
196,North Platte,US,2020-05-09 21:19:23,41.12,-100.77,57.2,50,75,16.11,broken clouds,0,0
197,Udimskiy,RU,2020-05-09 21:19:23,61.14,45.91,42.06,98,97,3.33,overcast clouds,0,0
198,Moron,AR,2020-05-09 21:15:19,-34.65,-58.62,70.0,56,0,1.99,clear sky,0,0
199,Juneau,US,2020-05-09 21:17:00,58.3,-134.42,60.8,44,75,11.41,broken clouds,0,0
200,Ribeira Grande,PT,2020-05-09 21:19:24,38.52,-28.7,64.4,88,75,19.46,broken clouds,0,0
201,Quatre Cocos,MU,2020-05-09 21:19:24,-20.21,57.76,73.4,83,40,9.17,scattered clouds,0,0
202,Sur,OM,2020-05-09 21:19:24,22.57,59.53,85.35,40,0,5.03,clear sky,0,0
203,Yashan,CN,2020-05-09 21:19:24,22.2,109.94,79.52,91,93,3.8,overcast clouds,0,0
204,Ukiah,US,2020-05-09 21:19:24,39.15,-123.21,91.4,14,1,8.05,clear sky,0,0
205,Nioro,GM,2020-05-09 21:18:03,13.35,-15.75,78.46,54,73,10.8,broken clouds,0,0
206,Singaraja,ID,2020-05-09 21:19:25,-8.11,115.09,79.25,76,82,2.57,broken clouds,0,0
207,Cabo San Lucas,MX,2020-05-09 21:19:25,22.89,-109.91,89.6,19,5,8.05,clear sky,0,0
208,Mount Isa,AU,2020-05-09 21:19:25,-20.73,139.5,66.2,29,2,10.29,clear sky,0,0
209,Noumea,NC,2020-05-09 21:18:55,-22.28,166.46,72.0,93,90,1.12,overcast clouds,0,0
210,Micheweni,TZ,2020-05-09 21:19:25,-4.97,39.83,81.03,74,94,17.52,light rain,0,0
211,Coquimbo,CL,2020-05-09 21:19:25,-29.95,-71.34,57.2,82,40,5.82,scattered clouds,0,0
212,Mithi,PK,2020-05-09 21:19:26,24.73,69.8,77.94,92,0,13.18,clear sky,0,0
213,San Rafael,AR,2020-05-09 21:19:26,-34.62,-68.33,74.14,25,0,11.5,clear sky,0,0
214,Saint-Philippe,RE,2020-05-09 21:19:26,-21.36,55.77,69.8,77,45,8.05,scattered clouds,0,0
215,Andros Town,BS,2020-05-09 21:19:26,24.7,-77.77,80.6,74,75,8.05,shower rain,0,0
216,Boffa,GN,2020-05-09 21:19:26,10.17,-14.03,79.99,79,100,4.07,overcast clouds,0,0
217,Aklavik,CA,2020-05-09 21:19:26,68.22,-135.01,42.8,56,20,17.22,few clouds,0,0
218,Baruun-Urt,MN,2020-05-09 21:19:27,46.68,113.28,40.55,66,100,20.74,overcast clouds,0,0
219,Lorengau,PG,2020-05-09 21:19:27,-2.02,147.27,83.64,75,8,6.4,clear sky,0,0
220,Las Vegas,US,2020-05-09 21:16:32,36.17,-115.14,98.01,7,1,4.7,clear sky,0,0
221,Samarinda,ID,2020-05-09 21:19:27,-0.5,117.15,74.46,93,100,1.07,overcast clouds,0,0
222,Dangara,IN,2020-05-09 21:19:27,29.68,75.89,89.46,26,84,6.64,broken clouds,0,0
223,Janow Lubelski,PL,2020-05-09 21:19:27,50.71,22.41,57.99,53,41,1.99,scattered clouds,0,0
224,Saint-Georges,GD,2020-05-09 21:19:28,12.06,-61.75,86.0,70,40,14.99,scattered clouds,0,0
225,Hovd,MN,2020-05-09 21:19:28,48.01,91.64,41.59,53,0,0.51,clear sky,0,0
226,Guerrero Negro,MX,2020-05-09 21:19:28,27.98,-114.06,77.25,44,0,13.22,clear sky,0,0
227,Bukachacha,RU,2020-05-09 21:19:28,52.98,116.92,30.45,83,0,4.47,clear sky,0,0
228,College,US,2020-05-09 21:19:28,64.86,-147.8,66.99,35,75,4.7,broken clouds,0,0
229,Mount Pleasant,US,2020-05-09 21:19:28,32.79,-79.86,70.0,30,1,3.36,clear sky,0,0
230,Kassala,SD,2020-05-09 21:19:28,15.45,36.4,87.35,18,97,4.45,overcast clouds,0,0
231,Butaritari,KI,2020-05-09 21:19:29,3.07,172.79,83.01,81,0,11.61,clear sky,0,0
232,Sterling,US,2020-05-09 21:19:29,39.01,-77.43,51.01,34,75,20.8,broken clouds,0,0
233,East London,ZA,2020-05-09 21:19:29,-33.02,27.91,65.89,82,17,7.47,few clouds,0,0
234,Haines Junction,CA,2020-05-09 21:16:25,60.75,-137.51,64.6,37,48,1.99,scattered clouds,0,0
235,Pacific Grove,US,2020-05-09 21:19:29,36.62,-121.92,64.4,63,1,12.75,clear sky,0,0
236,Elizabeth City,US,2020-05-09 21:19:29,36.29,-76.25,61.0,29,20,19.46,few clouds,0,0
237,Padang,ID,2020-05-09 21:19:29,-0.95,100.35,79.11,71,90,3.36,overcast clouds,0,0
238,Bhatkal,IN,2020-05-09 21:19:30,13.97,74.57,82.58,80,98,1.79,overcast clouds,0,0
239,Cherskiy,RU,2020-05-09 21:19:30,68.75,161.3,38.93,75,100,8.12,overcast clouds,0,0
240,Tula,RU,2020-05-09 21:19:30,54.2,37.61,44.98,87,100,5.73,overcast clouds,0,0
241,Zaykovo,RU,2020-05-09 21:19:30,57.56,62.76,62.08,47,32,5.79,scattered clouds,0,0
242,Katobu,ID,2020-05-09 21:19:30,-4.94,122.53,74.32,90,75,2.44,broken clouds,0,0
243,Saint Anthony,US,2020-05-09 21:19:30,45.02,-93.22,57.99,28,90,9.17,light rain,0,0
244,Kargat,RU,2020-05-09 21:19:31,55.2,80.28,57.79,63,0,4.72,clear sky,0,0
245,Shasta Lake,US,2020-05-09 21:19:31,40.68,-122.37,91.99,23,100,3.0,overcast clouds,0,0
246,Maroua,CM,2020-05-09 21:19:31,10.59,14.32,89.89,31,61,4.23,broken clouds,0,0
247,Mukono,UG,2020-05-09 21:19:31,0.35,32.76,69.8,94,20,3.24,few clouds,0,0
248,Khatanga,RU,2020-05-09 21:19:31,71.97,102.5,16.48,96,11,8.16,few clouds,0,0
249,Ankazoabo,MG,2020-05-09 21:19:31,-22.28,44.52,64.89,73,0,4.52,clear sky,0,0
250,Harlingen,US,2020-05-09 21:19:07,26.19,-97.7,80.6,61,75,19.46,broken clouds,0,0
251,Wilmington,US,2020-05-09 21:17:20,34.23,-77.94,66.0,27,1,12.75,clear sky,0,0
252,Batticaloa,LK,2020-05-09 21:19:32,7.71,81.69,80.73,81,100,3.98,overcast clouds,0,0
253,Paducah,US,2020-05-09 21:17:50,37.08,-88.6,64.4,25,1,4.34,clear sky,0,0
254,Gigmoto,PH,2020-05-09 21:19:32,13.78,124.39,79.99,79,89,4.21,overcast clouds,0,0
255,Luderitz,NA,2020-05-09 21:19:32,-26.65,15.16,60.8,77,0,3.36,clear sky,0,0
256,Almoloya,MX,2020-05-09 21:19:32,19.7,-98.4,69.8,46,75,11.41,moderate rain,0,0
257,Karratha,AU,2020-05-09 21:19:33,-20.74,116.85,74.64,27,92,15.3,overcast clouds,0,0
258,Turayf,SA,2020-05-09 21:19:33,31.67,38.66,60.8,72,0,12.75,clear sky,0,0
259,Kpandae,GH,2020-05-09 21:19:33,8.47,-0.01,82.26,72,32,6.17,light rain,0,0
260,Amahai,ID,2020-05-09 21:19:33,-3.33,128.92,78.12,84,6,4.68,clear sky,0,0
261,Itarema,BR,2020-05-09 21:19:33,-2.92,-39.92,78.66,85,8,6.64,light rain,0,0
262,Norman Wells,CA,2020-05-09 21:19:33,65.28,-126.83,46.4,49,5,19.46,clear sky,0,0
263,Prince George,CA,2020-05-09 21:19:34,53.92,-122.75,68.0,24,1,18.34,clear sky,0,0
264,Port Blair,IN,2020-05-09 21:19:34,11.67,92.75,82.58,79,95,2.66,overcast clouds,0,0
265,Guipavas,FR,2020-05-09 21:19:34,48.44,-4.4,59.0,87,40,2.24,scattered clouds,0,0
266,Kem,RU,2020-05-09 21:19:34,64.96,34.58,38.5,93,96,11.61,overcast clouds,0,0
267,Tarakan,ID,2020-05-09 21:19:34,3.3,117.63,81.18,79,100,4.38,overcast clouds,0,0
268,Solnechnyy,RU,2020-05-09 21:19:34,50.72,136.63,47.64,59,100,2.48,overcast clouds,0,0
269,Topeka,US,2020-05-09 21:15:09,39.05,-95.68,64.0,36,1,8.05,clear sky,0,0
270,Camacha,PT,2020-05-09 21:19:35,33.08,-16.33,64.4,88,75,11.41,light intensity drizzle,0,0
271,Shihezi,CN,2020-05-09 21:19:35,44.3,86.03,63.52,27,94,4.52,overcast clouds,0,0
272,Tias,ES,2020-05-09 21:19:35,28.96,-13.64,69.8,68,20,12.75,few clouds,0,0
273,Zelino,MK,2020-05-09 21:19:35,41.98,21.06,64.4,71,0,1.12,clear sky,0,0
274,Buinsk,RU,2020-05-09 21:19:35,54.95,48.28,60.8,59,91,4.47,overcast clouds,0,0
275,Joshimath,IN,2020-05-09 21:19:36,30.57,79.57,52.43,44,33,6.53,scattered clouds,0,0
276,Kirakira,SB,2020-05-09 21:19:36,-10.45,161.92,81.19,76,2,7.7,clear sky,0,0
277,Darnah,LY,2020-05-09 21:19:36,32.77,22.64,62.78,71,0,8.66,clear sky,0,0
278,Sampit,ID,2020-05-09 21:19:36,-2.53,112.95,74.64,95,100,1.99,overcast clouds,0,0
279,Garowe,SO,2020-05-09 21:19:36,8.41,48.48,81.45,65,4,10.27,clear sky,0,0
280,Bowen,AU,2020-05-09 21:19:36,-20.02,148.23,68.0,100,40,5.82,scattered clouds,0,0
281,Bathsheba,BB,2020-05-09 21:19:37,13.22,-59.52,82.4,65,75,20.8,broken clouds,0,0
282,Turinsk,RU,2020-05-09 21:19:37,58.05,63.7,60.26,50,20,6.08,few clouds,0,0
283,Kaniama,CD,2020-05-09 21:19:37,-7.57,24.18,68.92,89,50,2.84,scattered clouds,0,0
284,Muskegon,US,2020-05-09 21:19:37,43.3,-86.13,51.8,32,20,17.22,few clouds,0,0
285,Esperance,AU,2020-05-09 21:19:37,-33.87,121.9,46.4,93,0,10.29,clear sky,0,0
286,Luwuk,ID,2020-05-09 21:19:37,-0.95,122.79,78.76,81,100,7.29,light rain,0,0
287,Weymouth,US,2020-05-09 21:19:37,42.22,-70.94,46.0,33,75,23.04,broken clouds,0,0
288,Dudinka,RU,2020-05-09 21:19:38,69.41,86.18,30.2,86,75,20.13,broken clouds,0,0
289,Taltal,CL,2020-05-09 21:19:38,-25.4,-70.48,65.88,63,69,6.15,broken clouds,0,0
290,Comodoro Rivadavia,AR,2020-05-09 21:14:45,-45.87,-67.5,60.8,51,33,18.34,scattered clouds,0,0
291,Senneterre,CA,2020-05-09 21:19:38,48.38,-77.23,30.2,63,90,9.17,light snow,0,0
292,Adrar,MR,2020-05-09 21:19:38,20.5,-10.07,93.25,11,0,15.32,clear sky,0,0
293,Port Macquarie,AU,2020-05-09 21:19:38,-31.43,152.92,53.01,97,0,14.92,clear sky,0,0
294,Ravar,IR,2020-05-09 21:19:38,31.27,56.81,75.6,20,1,2.98,clear sky,0,0
295,Sabang,ID,2020-05-09 21:19:39,5.89,95.32,79.0,87,100,14.41,light rain,0,0
296,Bonavista,CA,2020-05-09 21:19:39,48.65,-53.11,39.38,75,100,23.94,overcast clouds,0,0
297,Sakakah,SA,2020-05-09 21:19:39,29.97,40.21,69.8,35,0,10.29,clear sky,0,0
298,Nichinan,JP,2020-05-09 21:19:39,31.6,131.37,69.8,94,75,1.12,mist,0,0
299,Rock Springs,US,2020-05-09 21:19:39,41.59,-109.2,55.4,22,1,5.88,clear sky,0,0
300,Sorland,NO,2020-05-09 21:19:39,67.67,12.69,33.58,80,100,8.66,overcast clouds,0,0
301,Vyshkov,RU,2020-05-09 21:19:40,52.48,31.69,55.4,62,100,6.71,overcast clouds,0,0
302,Menongue,AO,2020-05-09 21:19:40,-14.66,17.69,64.26,56,35,4.52,scattered clouds,0,0
303,Polyarnyy,RU,2020-05-09 21:19:40,69.2,33.45,32.0,91,75,2.24,light shower snow,0,0
304,Mezen,RU,2020-05-09 21:19:40,65.85,44.24,40.39,86,79,5.44,light rain,0,0
305,Rassvet,RU,2020-05-09 21:19:40,46.83,40.75,48.0,77,33,13.87,scattered clouds,0,0
306,Brandon,US,2020-05-09 21:15:44,27.94,-82.29,90.0,48,40,3.36,scattered clouds,0,0
307,San Martin,AR,2020-05-09 21:19:40,-33.08,-68.47,71.6,37,0,3.36,clear sky,0,0
308,Kaka,TM,2020-05-09 21:19:42,37.35,59.61,71.74,40,0,8.12,clear sky,0,0
309,Port Elizabeth,ZA,2020-05-09 21:19:42,-33.92,25.57,60.8,100,0,3.36,fog,0,0
310,Lubyany,RU,2020-05-09 21:19:42,56.04,51.4,66.2,34,25,20.13,scattered clouds,0,0
311,La Libertad,EC,2020-05-09 21:19:42,-2.23,-80.9,82.4,74,25,9.17,scattered clouds,0,0
312,Puri,IN,2020-05-09 21:19:42,19.8,85.85,82.4,94,40,6.93,haze,0,0
313,Mucurapo,TT,2020-05-09 21:19:42,10.67,-61.53,86.0,58,20,17.22,shower rain,0,0
314,Kabinda,CD,2020-05-09 21:19:43,-6.13,24.48,70.45,88,45,3.67,scattered clouds,0,0
315,Chaohu,CN,2020-05-09 21:19:43,31.6,117.87,61.0,100,40,4.47,mist,0,0
316,Labuhan,ID,2020-05-09 21:19:43,-6.88,112.21,76.03,91,100,11.16,overcast clouds,0,0
317,Takaka,NZ,2020-05-09 21:19:43,-40.85,172.8,55.99,83,0,1.99,clear sky,0,0
318,Ust-Karsk,RU,2020-05-09 21:19:43,52.7,118.81,36.3,88,55,3.4,broken clouds,0,0
319,Hami,CN,2020-05-09 21:19:43,42.8,93.45,55.92,34,0,6.11,clear sky,0,0
320,Devrek,TR,2020-05-09 21:19:44,41.22,31.96,46.49,68,0,4.34,clear sky,0,0
321,Eureka,US,2020-05-09 21:19:06,40.8,-124.16,64.99,67,100,5.01,overcast clouds,0,0
322,Bonthe,SL,2020-05-09 21:19:44,7.53,-12.51,81.37,86,100,6.46,light rain,0,0
323,Moerai,PF,2020-05-09 21:19:44,-22.43,-151.33,77.11,69,0,6.08,clear sky,0,0
324,Yatou,CN,2020-05-09 21:19:44,37.15,122.38,54.7,93,100,7.83,light rain,0,0
325,Kudahuvadhoo,MV,2020-05-09 21:19:44,2.67,72.89,85.15,78,100,13.98,light rain,0,0
326,Erie,US,2020-05-09 21:19:44,42.77,-78.67,42.01,48,90,18.34,light rain,0,0
327,Rawson,AR,2020-05-09 21:19:45,-43.3,-65.1,65.21,32,29,10.87,scattered clouds,0,0
328,Port Hardy,CA,2020-05-09 21:19:45,50.7,-127.42,64.4,48,75,3.36,broken clouds,0,0
329,Coos Bay,US,2020-05-09 21:19:45,43.37,-124.22,75.0,82,1,10.29,clear sky,0,0
330,Kristianstad,SE,2020-05-09 21:19:45,56.03,14.15,53.01,81,15,2.24,few clouds,0,0
331,Dunedin,NZ,2020-05-09 21:17:42,-45.87,170.5,52.0,96,83,3.0,broken clouds,0,0
332,Cerrito,CO,2020-05-09 21:19:45,6.84,-72.69,80.6,65,40,9.17,scattered clouds,0,0
333,Mao,ES,2020-05-09 21:19:46,39.89,4.27,64.4,88,2,4.7,clear sky,0,0
334,Carutapera,BR,2020-05-09 21:19:46,-1.2,-46.02,78.51,88,81,5.21,light rain,0,0
335,Golub-Dobrzyn,PL,2020-05-09 21:19:46,53.11,19.05,55.99,70,22,4.0,few clouds,0,0
336,Atasu,KZ,2020-05-09 21:19:46,48.68,71.64,57.13,78,95,5.1,overcast clouds,0,0
337,Zhigansk,RU,2020-05-09 21:19:46,66.77,123.37,14.59,96,22,8.86,few clouds,0,0
338,Kavieng,PG,2020-05-09 21:19:46,-2.57,150.8,83.57,78,3,9.37,clear sky,0,0
339,Rumphi,MW,2020-05-09 21:19:46,-11.02,33.86,58.66,81,38,3.6,scattered clouds,0,0
340,Chake Chake,TZ,2020-05-09 21:19:47,-5.25,39.77,80.67,73,99,14.03,light rain,0,0
341,Mezotur,HU,2020-05-09 21:19:47,47.0,20.63,63.0,51,92,2.24,overcast clouds,0,0
342,Razvilnoye,RU,2020-05-09 21:19:47,46.24,41.3,46.44,84,0,11.5,clear sky,0,0
343,Luanda,AO,2020-05-09 21:19:47,-8.84,13.23,80.6,88,75,3.36,broken clouds,0,0
344,Hofn,IS,2020-05-09 21:19:47,64.25,-15.21,33.91,76,100,9.95,overcast clouds,0,0
345,Okhotsk,RU,2020-05-09 21:19:47,59.38,143.3,36.61,80,0,13.02,clear sky,0,0
346,Severnyy,RU,2020-05-09 21:19:48,50.68,36.55,44.6,81,40,4.47,scattered clouds,0,0
347,Kushima,JP,2020-05-09 21:19:48,31.46,131.23,69.8,88,75,1.12,light intensity shower rain,0,0
348,Gibara,CU,2020-05-09 21:19:48,21.11,-76.13,77.0,88,90,18.34,thunderstorm,0,0
349,Faanui,PF,2020-05-09 21:19:48,-16.48,-151.75,81.7,80,23,17.9,few clouds,0,0
350,Yulara,AU,2020-05-09 21:19:48,-25.24,130.99,53.6,50,88,9.17,overcast clouds,0,0
351,Dekar,BW,2020-05-09 21:19:48,-21.53,21.93,61.43,33,0,5.66,clear sky,0,0
352,Broken Hill,AU,2020-05-09 21:19:49,-31.95,141.43,42.8,81,0,4.7,clear sky,0,0
353,Vardo,NO,2020-05-09 21:19:49,70.37,31.11,34.65,83,75,2.59,broken clouds,0,0
354,Les Cayes,HT,2020-05-09 21:19:49,18.2,-73.75,83.59,71,100,11.52,overcast clouds,0,0
355,Yakima,US,2020-05-09 21:19:49,46.47,-120.67,79.0,21,1,4.7,clear sky,0,0
356,Tautira,PF,2020-05-09 21:17:35,-17.73,-149.15,86.0,70,35,4.7,scattered clouds,0,0
357,Pasni,PK,2020-05-09 21:19:49,25.26,63.47,82.53,68,6,10.58,clear sky,0,0
358,Pangody,RU,2020-05-09 21:19:50,65.85,74.49,32.95,91,54,8.3,broken clouds,0,0
359,Danilovka,RU,2020-05-09 21:19:50,50.36,44.12,48.83,84,53,10.42,broken clouds,0,0
360,Lucea,JM,2020-05-09 21:19:50,18.45,-78.17,89.6,62,20,18.34,few clouds,0,0
361,Borogontsy,RU,2020-05-09 21:15:06,62.67,131.17,25.54,93,94,5.59,overcast clouds,0,0
362,Andapa,MG,2020-05-09 21:19:50,-14.65,49.65,66.83,91,99,2.08,overcast clouds,0,0
363,Paita,PE,2020-05-09 21:19:50,-5.09,-81.11,75.69,70,16,16.06,few clouds,0,0
364,Muncar,ID,2020-05-09 21:19:50,-8.43,114.33,77.63,86,84,3.09,broken clouds,0,0
365,Salinopolis,BR,2020-05-09 21:19:51,-0.61,-47.36,80.53,84,66,8.9,light rain,0,0
366,Vakhrushevo,RU,2020-05-09 21:19:51,55.23,61.72,57.2,50,78,2.24,broken clouds,0,0
367,Beloha,MG,2020-05-09 21:19:51,-25.17,45.05,66.36,83,16,12.21,few clouds,0,0
368,Gamba,GA,2020-05-09 21:19:51,-2.65,10.0,77.34,86,92,2.84,overcast clouds,0,0
369,Kruisfontein,ZA,2020-05-09 21:19:51,-34.0,24.73,58.95,80,0,3.96,clear sky,0,0
370,Inyonga,TZ,2020-05-09 21:19:51,-6.72,32.07,63.91,79,0,4.41,clear sky,0,0
371,Doha,QA,2020-05-09 21:15:57,25.29,51.53,90.0,35,100,1.12,overcast clouds,0,0
372,Tuy Hoa,VN,2020-05-09 21:19:52,13.08,109.3,76.75,86,61,3.44,broken clouds,0,0
373,Komsomolets,KZ,2020-05-09 21:19:52,53.75,62.07,61.65,46,96,4.63,overcast clouds,0,0
374,Northam,GB,2020-05-09 21:19:52,51.03,-4.22,59.0,84,92,1.01,overcast clouds,0,0
375,Banda Aceh,ID,2020-05-09 21:19:52,5.56,95.32,78.13,88,100,8.9,overcast clouds,0,0
376,Seoul,KR,2020-05-09 21:15:08,37.57,126.98,57.2,100,75,3.36,light rain,0,0
377,Brezice,SI,2020-05-09 21:19:52,45.9,15.59,64.99,59,58,9.17,broken clouds,0,0
378,Boma,GH,2020-05-09 21:19:21,7.08,-2.17,76.71,87,37,2.51,scattered clouds,0,0
379,Tingo Maria,PE,2020-05-09 21:19:53,-9.29,-76.01,84.2,58,20,3.36,few clouds,0,0
380,Tire,TR,2020-05-09 21:19:01,38.09,27.74,62.6,51,0,11.41,clear sky,0,0
381,Manbij,SY,2020-05-09 21:19:53,36.53,37.95,55.4,76,24,6.93,few clouds,0,0
382,Palmer,US,2020-05-09 21:19:53,42.16,-72.33,44.01,35,40,28.86,light rain,0,0
383,Show Low,US,2020-05-09 21:19:53,34.25,-110.03,75.99,17,75,10.78,broken clouds,0,0
384,General Roca,AR,2020-05-09 21:19:54,-39.03,-67.58,75.2,30,16,10.29,few clouds,0,0
385,Xuddur,SO,2020-05-09 21:19:54,4.12,43.89,75.18,86,88,11.36,light rain,0,0
386,Westport,US,2020-05-09 21:19:17,41.14,-73.36,46.4,26,90,17.22,overcast clouds,0,0
387,Tagusao,PH,2020-05-09 21:19:54,9.19,117.81,81.19,79,99,3.49,overcast clouds,0,0
388,Oranjemund,NA,2020-05-09 21:19:54,-28.55,16.43,68.25,44,0,5.79,clear sky,0,0
389,Smithers,CA,2020-05-09 21:15:05,54.78,-127.17,69.8,22,40,10.29,scattered clouds,0,0
390,Gat,IL,2020-05-09 21:19:54,31.61,34.76,66.99,76,10,3.06,clear sky,0,0
391,Svetlaya,RU,2020-05-09 21:19:55,46.54,138.33,42.01,83,100,8.79,light rain,0,0
392,Salalah,OM,2020-05-09 21:19:55,17.02,54.09,82.4,88,0,2.24,clear sky,0,0
393,Carauari,BR,2020-05-09 21:19:55,-4.88,-66.9,82.44,79,57,3.51,light rain,0,0
394,Ketchikan,US,2020-05-09 21:17:16,55.34,-131.65,75.2,23,1,17.22,clear sky,0,0
395,Vila Velha,BR,2020-05-09 21:19:55,-20.33,-40.29,71.6,68,12,5.82,few clouds,0,0
396,Ati,TD,2020-05-09 21:19:55,13.22,18.34,90.01,11,0,10.13,clear sky,0,0
397,Obidos,BR,2020-05-09 21:19:55,-1.92,-55.52,84.02,77,38,3.33,scattered clouds,0,0
398,Mweka,CD,2020-05-09 21:19:56,-4.85,21.57,73.0,82,93,2.37,overcast clouds,0,0
399,Mokhsogollokh,RU,2020-05-09 21:19:56,61.47,128.92,25.86,92,0,4.5,clear sky,0,0
400,Nueva Loja,EC,2020-05-09 21:19:56,0.08,-76.88,82.4,69,75,4.7,broken clouds,0,0
401,Yuanping,CN,2020-05-09 21:16:26,38.72,112.76,53.01,44,0,1.57,clear sky,0,0
402,Sao Francisco Do Sul,BR,2020-05-09 21:19:56,-26.24,-48.64,69.8,73,20,6.93,few clouds,0,0
403,Damghan,IR,2020-05-09 21:19:56,36.17,54.35,71.24,27,100,4.07,overcast clouds,0,0
404,Hede,CN,2020-05-09 21:19:56,33.77,120.25,57.4,82,57,2.21,broken clouds,0,0
405,Zatoka,UA,2020-05-09 21:19:57,46.07,30.47,51.8,76,15,8.41,few clouds,0,0
406,Codrington,AU,2020-05-09 21:19:57,-38.27,141.97,46.09,78,82,7.99,broken clouds,0,0
407,Behbahan,IR,2020-05-09 21:19:57,30.6,50.24,80.6,34,75,11.83,broken clouds,0,0
408,Lavrentiya,RU,2020-05-09 21:16:23,65.58,-171.0,35.33,92,100,10.27,overcast clouds,0,0
409,Ballina,AU,2020-05-09 21:19:57,-28.87,153.57,62.01,93,0,2.24,clear sky,0,0
410,Isiro,CD,2020-05-09 21:19:57,2.77,27.62,66.74,98,100,0.38,overcast clouds,0,0
411,Camocim,BR,2020-05-09 21:19:21,-2.9,-40.84,79.3,85,4,6.82,light rain,0,0
412,Samarai,PG,2020-05-09 21:19:58,-10.62,150.67,80.58,81,96,14.54,overcast clouds,0,0
413,Barquisimeto,VE,2020-05-09 21:15:05,10.07,-69.32,77.0,61,91,12.75,overcast clouds,0,0
414,Tongren,CN,2020-05-09 21:19:58,27.72,109.19,64.26,85,93,4.54,light rain,0,0
415,Leshukonskoye,RU,2020-05-09 21:19:58,64.9,45.76,38.62,89,3,6.13,clear sky,0,0
416,Lerwick,GB,2020-05-09 21:19:59,60.15,-1.15,39.2,74,84,20.8,broken clouds,0,0
417,Trairi,BR,2020-05-09 21:19:41,-3.28,-39.27,77.85,88,7,5.23,light rain,0,0
418,Talas,TR,2020-05-09 21:19:59,38.69,35.55,42.8,75,0,1.12,clear sky,0,0
419,Thinadhoo,MV,2020-05-09 21:19:59,0.53,72.93,85.14,77,99,13.44,overcast clouds,0,0
420,Concordia,AR,2020-05-09 21:20:00,-31.39,-58.02,72.0,46,0,8.05,clear sky,0,0
421,Wanaka,NZ,2020-05-09 21:20:00,-44.7,169.15,48.0,86,92,3.2,overcast clouds,0,0
422,Goma,CD,2020-05-09 21:20:00,-1.68,29.22,64.72,82,100,2.62,light rain,0,0
423,Dicabisagan,PH,2020-05-09 21:20:00,17.08,122.42,79.57,82,69,1.79,broken clouds,0,0
424,Port Hedland,AU,2020-05-09 21:20:00,-20.32,118.57,69.8,28,58,8.05,broken clouds,0,0
425,Phuket,TH,2020-05-09 21:20:00,8.0,98.25,78.8,94,75,2.24,light rain,0,0
426,Namibe,AO,2020-05-09 21:17:38,-15.2,12.15,80.83,53,17,3.18,few clouds,0,0
427,Sept-Iles,CA,2020-05-09 21:20:01,50.2,-66.38,44.01,73,75,8.05,broken clouds,0,0
428,Paraibano,BR,2020-05-09 21:20:01,-6.43,-43.98,77.83,80,14,4.07,few clouds,0,0
429,Miraflores,MX,2020-05-09 21:20:01,19.22,-98.81,71.6,46,75,11.41,broken clouds,0,0
430,Waterloo,CA,2020-05-09 21:15:33,43.47,-80.52,42.01,44,90,24.16,overcast clouds,0,0
431,Ornskoldsvik,SE,2020-05-09 21:20:01,63.29,18.72,37.4,64,100,11.41,snow,0,0
432,Nelson Bay,AU,2020-05-09 21:20:01,-32.72,152.15,54.0,81,0,6.93,clear sky,0,0
433,Medeiros Neto,BR,2020-05-09 21:20:02,-17.37,-40.22,66.33,81,44,8.7,scattered clouds,0,0
434,Gushikawa,JP,2020-05-09 21:20:02,26.35,127.87,75.2,94,90,3.36,overcast clouds,0,0
435,Vila Franca Do Campo,PT,2020-05-09 21:20:02,37.72,-25.43,62.6,88,75,23.04,broken clouds,0,0
436,Hasaki,JP,2020-05-09 21:20:02,35.73,140.83,66.2,82,75,6.93,broken clouds,0,0
437,Shimoda,JP,2020-05-09 21:20:02,34.67,138.95,65.84,88,100,14.41,overcast clouds,0,0
438,Sao Miguel,BR,2020-05-09 21:20:02,-5.47,-35.37,78.8,83,40,5.82,scattered clouds,0,0
439,Olga,RU,2020-05-09 21:20:02,43.74,135.29,48.6,95,100,1.7,moderate rain,0,0
440,Arawa,PG,2020-05-09 21:20:03,-6.21,155.54,81.99,80,71,3.09,light rain,0,0
441,Amuntai,ID,2020-05-09 21:20:03,-2.42,115.25,72.91,96,100,1.03,light rain,0,0
442,Georgetown,MY,2020-05-09 21:17:40,5.41,100.34,80.6,100,20,3.36,few clouds,0,0
443,Maldonado,UY,2020-05-09 21:20:03,-34.67,-54.92,64.4,63,50,6.93,scattered clouds,0,0
444,Santa Isabel Do Rio Negro,BR,2020-05-09 21:20:03,-0.41,-65.02,82.6,93,99,0.45,moderate rain,0,0
445,Chase,CA,2020-05-09 21:20:03,50.82,-119.69,75.2,25,40,4.7,scattered clouds,0,0
446,Pskov,RU,2020-05-09 21:20:04,57.81,28.35,50.0,53,21,4.47,few clouds,0,0
447,Sao Joao Da Barra,BR,2020-05-09 21:20:04,-21.64,-41.05,75.2,73,40,7.0,scattered clouds,0,0
448,Sao Felix Do Xingu,BR,2020-05-09 21:20:04,-6.64,-51.99,78.62,86,69,2.71,light rain,0,0
449,Portobelo,PA,2020-05-09 21:20:04,9.55,-79.65,89.6,83,40,3.36,thunderstorm with light rain,0,0
450,Road Town,VG,2020-05-09 21:20:04,18.42,-64.62,82.99,84,8,3.0,clear sky,0,0
451,Morbach,DE,2020-05-09 21:20:04,49.82,7.12,55.0,87,20,8.05,few clouds,0,0
452,Hay River,CA,2020-05-09 21:15:33,60.82,-115.8,33.8,74,75,8.05,broken clouds,0,0
453,Udachnyy,RU,2020-05-09 21:20:05,66.42,112.4,32.0,98,90,8.95,light shower snow,0,0
454,Honiara,SB,2020-05-09 21:20:05,-9.43,159.95,78.8,94,40,2.24,scattered clouds,0,0
455,Iralaya,HN,2020-05-09 21:20:05,15.0,-83.23,91.4,66,75,11.41,broken clouds,0,0
456,Kieta,PG,2020-05-09 21:20:05,-6.22,155.63,82.56,80,67,5.46,light rain,0,0
457,Ancud,CL,2020-05-09 21:20:05,-41.87,-73.82,53.01,87,75,13.87,broken clouds,0,0
458,Buenos Aires,AR,2020-05-09 21:16:12,-34.61,-58.38,68.0,52,0,8.05,clear sky,0,0
459,Nador,MA,2020-05-09 21:19:25,35.17,-2.93,66.2,72,51,10.29,broken clouds,0,0
460,Farnborough,GB,2020-05-09 21:18:03,51.29,-0.76,60.8,51,100,8.05,overcast clouds,0,0
461,Kachug,RU,2020-05-09 21:20:06,53.96,105.88,36.93,81,4,4.18,clear sky,0,0
462,Maarianhamina,AX,2020-05-09 21:20:06,60.1,19.93,41.0,65,0,6.93,clear sky,0,0
463,Along,IN,2020-05-09 21:20:06,28.17,94.77,63.45,77,5,1.88,clear sky,0,0
464,Hualmay,PE,2020-05-09 21:20:06,-11.1,-77.61,71.15,73,37,10.51,scattered clouds,0,0
465,Eyl,SO,2020-05-09 21:20:06,7.98,49.82,83.71,73,5,7.7,clear sky,0,0
466,Cartagena,CO,2020-05-09 21:15:09,10.4,-75.51,89.6,75,40,11.41,scattered clouds,0,0
467,Antalaha,MG,2020-05-09 21:20:07,-14.9,50.28,74.1,83,99,8.23,overcast clouds,0,0
468,Billings,US,2020-05-09 21:15:56,45.78,-108.5,55.99,27,75,8.05,broken clouds,0,0
469,Tiksi,RU,2020-05-09 21:20:07,71.69,128.87,17.38,95,0,4.76,clear sky,0,0
470,Buala,SB,2020-05-09 21:20:07,-8.14,159.59,83.01,79,21,5.35,light rain,0,0
471,Urusha,RU,2020-05-09 21:20:07,54.05,122.9,31.8,86,37,3.91,scattered clouds,0,0
472,Salym,RU,2020-05-09 21:20:07,60.06,71.48,58.44,60,0,5.55,clear sky,0,0
473,Cap Malheureux,MU,2020-05-09 21:20:08,-19.98,57.61,71.01,82,0,1.99,clear sky,0,0
474,Souillac,MU,2020-05-09 21:20:08,-20.52,57.52,73.4,83,40,9.17,scattered clouds,0,0
475,Canon City,US,2020-05-09 21:20:08,38.44,-105.24,69.8,22,1,13.87,clear sky,0,0
476,Constitucion,CL,2020-05-09 21:19:53,-35.33,-72.42,59.63,84,22,4.14,few clouds,0,0
477,Pangnirtung,CA,2020-05-09 21:19:59,66.15,-65.71,31.68,92,100,5.93,overcast clouds,0,0
478,Bingol,TR,2020-05-09 21:18:55,38.88,40.49,47.48,81,99,6.91,light rain,0,0
479,Maumere,ID,2020-05-09 21:20:08,-8.62,122.21,78.33,75,1,4.41,clear sky,0,0
480,Oranjestad,AW,2020-05-09 21:16:01,12.52,-70.03,86.0,70,20,31.09,few clouds,0,0
481,Nizhniy Kuranakh,RU,2020-05-09 21:20:09,58.84,125.49,31.66,94,61,0.58,broken clouds,0,0
482,Dakar,SN,2020-05-09 21:16:07,14.69,-17.44,71.6,83,100,13.87,overcast clouds,0,0
483,Shitanjing,CN,2020-05-09 21:20:09,39.23,106.34,48.85,48,25,5.39,scattered clouds,0,0
484,Dargaville,NZ,2020-05-09 21:20:09,-35.93,173.88,60.04,78,99,5.19,overcast clouds,0,0
485,Zhangye,CN,2020-05-09 21:20:09,38.93,100.45,52.59,34,45,2.95,scattered clouds,0,0
486,Biltine,TD,2020-05-09 21:20:10,14.53,20.92,83.48,11,0,11.18,clear sky,0,0
487,Baykit,RU,2020-05-09 21:20:10,61.67,96.37,54.95,73,99,11.59,overcast clouds,0,0
488,Nuevo Progreso,MX,2020-05-09 21:20:10,23.17,-97.95,84.0,63,100,11.01,overcast clouds,0,0
489,Gornopravdinsk,RU,2020-05-09 21:20:10,60.05,69.9,59.13,54,6,5.93,clear sky,0,0
490,Kununurra,AU,2020-05-09 21:20:10,-15.77,128.73,73.4,78,90,1.12,overcast clouds,0,0
491,Bima,ID,2020-05-09 21:20:10,-8.47,118.72,73.92,88,97,3.27,overcast clouds,0,0
492,Vaitape,PF,2020-05-09 21:20:10,-16.52,-151.75,82.49,78,25,17.87,scattered clouds,0,0
493,Lakes Entrance,AU,2020-05-09 21:20:11,-37.88,147.98,44.01,78,21,18.63,few clouds,0,0
494,Port Lincoln,AU,2020-05-09 21:20:12,-34.73,135.87,54.36,70,10,8.25,clear sky,0,0
495,Kousseri,CM,2020-05-09 21:20:12,12.08,15.03,93.02,13,0,5.06,clear sky,0,0
496,Lidkoping,SE,2020-05-09 21:20:12,58.51,13.16,44.6,75,12,9.17,few clouds,0,0
497,Capitao Poco,BR,2020-05-09 21:20:12,-1.75,-47.06,77.5,95,68,5.23,light rain,0,0
498,Henties Bay,NA,2020-05-09 21:20:12,-22.12,14.28,70.07,50,0,8.03,clear sky,0,0
499,Chabahar,IR,2020-05-09 21:20:12,25.29,60.64,83.07,66,10,4.54,clear sky,0,0
500,Barranca,PE,2020-05-09 21:20:12,-10.75,-77.77,69.85,76,69,9.42,broken clouds,0,0
501,Raudeberg,NO,2020-05-09 21:20:13,61.99,5.14,37.0,89,99,23.49,snow,0,0
502,Zhanakorgan,KZ,2020-05-09 21:20:13,43.91,67.25,65.3,67,32,13.8,scattered clouds,0,0
503,Belmonte,BR,2020-05-09 21:20:13,-15.86,-38.88,75.2,60,40,9.17,scattered clouds,0,0
504,Ilulissat,GL,2020-05-09 21:20:13,69.22,-51.1,33.8,80,100,4.7,light intensity shower rain,0,0
505,Yukamenskoye,RU,2020-05-09 21:20:13,57.89,52.24,57.65,58,3,5.14,clear sky,0,0
506,Yaan,NG,2020-05-09 21:20:13,7.38,8.57,82.69,71,100,3.33,light rain,0,0
507,Hanko,FI,2020-05-09 21:20:13,59.83,22.95,39.99,68,14,3.0,few clouds,0,0
508,Arcachon,FR,2020-05-09 21:20:14,44.59,-1.05,64.4,93,100,6.93,light rain,0,0
509,Sulphur,US,2020-05-09 21:20:14,30.24,-93.38,68.0,45,90,10.29,overcast clouds,0,0
510,Barra Patuca,HN,2020-05-09 21:20:14,15.8,-84.28,86.45,70,78,12.01,broken clouds,0,0
511,Haapiti,PF,2020-05-09 21:20:14,-17.57,-149.87,86.0,70,0,5.82,clear sky,0,0
512,Bull Savanna,JM,2020-05-09 21:20:14,17.89,-77.59,82.94,69,100,17.98,overcast clouds,0,0
513,Cuamba,MZ,2020-05-09 21:20:14,-14.8,36.54,63.64,85,29,6.82,scattered clouds,0,0
514,Isabela,PH,2020-05-09 21:20:15,6.71,121.97,80.6,94,75,1.88,broken clouds,0,0
515,Jerez,GT,2020-05-09 21:20:15,14.1,-89.75,85.62,56,92,4.94,overcast clouds,0,0
516,Papetoai,PF,2020-05-09 21:20:15,-17.5,-149.87,86.0,70,0,5.82,clear sky,0,0
517,Srandakan,ID,2020-05-09 21:20:15,-7.94,110.25,77.52,85,100,4.21,overcast clouds,0,0
518,Balkanabat,TM,2020-05-09 21:20:15,39.51,54.37,75.94,39,0,9.48,clear sky,0,0
519,Tazovskiy,RU,2020-05-09 21:20:15,67.47,78.7,26.89,97,0,7.47,clear sky,0,0
520,Matara,LK,2020-05-09 21:20:00,5.95,80.54,80.33,88,100,4.83,overcast clouds,0,0
521,Mitikas,GR,2020-05-09 21:20:16,38.67,20.95,57.2,87,0,1.34,clear sky,0,0
522,Koumra,TD,2020-05-09 21:20:16,8.91,17.55,81.81,66,79,9.62,broken clouds,0,0
523,Albanel,CA,2020-05-09 21:16:59,48.88,-72.45,35.6,59,75,26.4,broken clouds,0,0
524,Whitehorse,CA,2020-05-09 21:17:04,60.72,-135.05,68.0,24,20,14.99,few clouds,0,0
525,Havoysund,NO,2020-05-09 21:20:16,71.0,24.66,32.0,83,20,11.41,few clouds,0,0
526,Te Horo,NZ,2020-05-09 21:20:16,-40.81,175.12,54.0,87,1,7.7,clear sky,0,0
527,Port Shepstone,ZA,2020-05-09 21:16:11,-30.74,30.45,65.14,82,0,5.28,clear sky,0,0
528,Atar,MR,2020-05-09 21:20:17,20.52,-13.05,89.46,12,16,10.85,few clouds,0,0
529,Kulhudhuffushi,MV,2020-05-09 21:20:17,6.62,73.07,81.86,81,100,6.69,light rain,0,0
530,Manono,CD,2020-05-09 21:20:17,-7.3,27.42,70.16,74,19,4.03,few clouds,0,0
531,Wroclaw,PL,2020-05-09 21:19:50,51.1,17.03,60.8,41,100,4.7,overcast clouds,0,0
532,Polican,AL,2020-05-09 21:20:17,40.61,20.1,56.26,68,0,2.51,clear sky,0,0
533,Rodenbach,DE,2020-05-09 21:20:17,50.15,9.03,59.0,87,98,1.7,overcast clouds,0,0
534,Honningsvag,NO,2020-05-09 21:20:18,70.98,25.97,35.28,79,95,11.39,overcast clouds,0,0
535,Kamaishi,JP,2020-05-09 21:20:18,39.27,141.88,57.31,75,94,6.42,overcast clouds,0,0
536,Lobito,AO,2020-05-09 21:20:18,-12.35,13.55,78.37,77,95,1.05,overcast clouds,0,0
537,Broome,US,2020-05-09 21:20:18,42.25,-75.83,37.99,69,90,24.16,light snow,0,0
538,Bohl-Iggelheim,DE,2020-05-09 21:20:18,49.38,8.3,60.01,79,90,2.04,overcast clouds,0,0
539,Los Llanos De Aridane,ES,2020-05-09 21:20:18,28.66,-17.92,69.8,73,24,17.22,few clouds,0,0
540,Forio,IT,2020-05-09 21:20:19,40.73,13.86,62.01,75,100,1.99,overcast clouds,0,0
541,Mountain Home,US,2020-05-09 21:19:47,43.13,-115.69,77.0,9,1,8.05,clear sky,0,0
542,Alihe,CN,2020-05-09 21:20:19,50.57,123.72,44.73,82,99,4.36,overcast clouds,0,0
543,Isangel,VU,2020-05-09 21:20:19,-19.55,169.27,73.4,94,20,12.95,few clouds,0,0
544,Nome,US,2020-05-09 21:17:05,64.5,-165.41,46.4,61,1,17.22,clear sky,0,0
545,Havre-Saint-Pierre,CA,2020-05-09 21:20:19,50.23,-63.6,41.0,75,1,6.93,clear sky,0,0
546,Dzaoudzi,YT,2020-05-09 21:20:20,-12.79,45.27,78.8,94,77,2.24,broken clouds,0,0
547,Viedma,AR,2020-05-09 21:20:20,-40.81,-63.0,65.37,33,9,12.55,clear sky,0,0
548,Ayagoz,KZ,2020-05-09 21:20:20,47.97,80.44,54.16,44,97,2.01,overcast clouds,0,0
549,Pochutla,MX,2020-05-09 21:20:20,15.74,-96.47,91.4,55,20,7.02,few clouds,0,0
